[{"pk": 0, "fields": {"name": "company0"}, "model": "website.Company"}, {"pk": 0, "fields": {"lon": 8.44658239143, "name": "Affoltern am Albis", "lat": 47.276064074, "importance": 4}, "model": "website.Station"}, {"pk": 0, "fields": {"cups_current": 75, "name": "sellpoint0", "company": 0, "station": 0, "cups_desired": 75}, "model": "website.SellPoint"}, {"pk": 0, "fields": {"station": 0}, "model": "website.DropOff"}, {"pk": 1, "fields": {"lon": 9.25200601938, "name": "Arnegg", "lat": 47.4420020412, "importance": 3}, "model": "website.Station"}, {"pk": 1, "fields": {"cups_current": 20, "name": "sellpoint1", "company": 0, "station": 1, "cups_desired": 20}, "model": "website.SellPoint"}, {"pk": 1, "fields": {"station": 1}, "model": "website.DropOff"}, {"pk": 2, "fields": {"lon": 8.2778329759, "name": "Alpnachstad", "lat": 46.9550392879, "importance": 3}, "model": "website.Station"}, {"pk": 2, "fields": {"cups_current": 20, "name": "sellpoint2", "company": 0, "station": 2, "cups_desired": 20}, "model": "website.SellPoint"}, {"pk": 2, "fields": {"station": 2}, "model": "website.DropOff"}, {"pk": 3, "fields": {"lon": 8.05125354274, "name": "Aarau", "lat": 47.3913553369, "importance": 4}, "model": "website.Station"}, {"pk": 3, "fields": {"cups_current": 359, "name": "sellpoint3", "company": 0, "station": 3, "cups_desired": 359}, "model": "website.SellPoint"}, {"pk": 3, "fields": {"station": 3}, "model": "website.DropOff"}, {"pk": 4, "fields": {"lon": 8.51775897551, "name": "Baar Neufeld", "lat": 47.1884876743, "importance": 3}, "model": "website.Station"}, {"pk": 4, "fields": {"cups_current": 20, "name": "sellpoint4", "company": 0, "station": 4, "cups_desired": 20}, "model": "website.SellPoint"}, {"pk": 4, "fields": {"station": 4}, "model": "website.DropOff"}, {"pk": 5, "fields": {"lon": 8.27524412618, "name": "Alpnach Dorf", "lat": 46.9406471179, "importance": 2}, "model": "website.Station"}, {"pk": 5, "fields": {"cups_current": 14, "name": "sellpoint5", "company": 0, "station": 5, "cups_desired": 14}, "model": "website.SellPoint"}, {"pk": 5, "fields": {"station": 5}, "model": "website.DropOff"}, {"pk": 6, "fields": {"lon": 8.6086051345, "name": "Airolo", "lat": 46.5275264817, "importance": 3}, "model": "website.Station"}, {"pk": 6, "fields": {"cups_current": 20, "name": "sellpoint6", "company": 0, "station": 6, "cups_desired": 20}, "model": "website.SellPoint"}, {"pk": 6, "fields": {"station": 6}, "model": "website.DropOff"}, {"pk": 7, "fields": {"lon": 9.64124454757, "name": "Au SG", "lat": 47.4361134139, "importance": 3}, "model": "website.Station"}, {"pk": 7, "fields": {"cups_current": 20, "name": "sellpoint7", "company": 0, "station": 7, "cups_desired": 20}, "model": "website.SellPoint"}, {"pk": 7, "fields": {"station": 7}, "model": "website.DropOff"}, {"pk": 8, "fields": {"lon": 9.17451078978, "name": "Berg", "lat": 47.5822523245, "importance": 3}, "model": "website.Station"}, {"pk": 8, "fields": {"cups_current": 20, "name": "sellpoint8", "company": 0, "station": 8, "cups_desired": 20}, "model": "website.SellPoint"}, {"pk": 8, "fields": {"station": 8}, "model": "website.DropOff"}, {"pk": 9, "fields": {"lon": 8.4375437434, "name": "Birmensdorf ZH", "lat": 47.3574317945, "importance": 4}, "model": "website.Station"}, {"pk": 9, "fields": {"cups_current": 40, "name": "sellpoint9", "company": 0, "station": 9, "cups_desired": 40}, "model": "website.SellPoint"}, {"pk": 9, "fields": {"station": 9}, "model": "website.DropOff"}, {"pk": 10, "fields": {"lon": 9.02950898687, "name": "Bellinzona", "lat": 46.195436816, "importance": 4}, "model": "website.Station"}, {"pk": 10, "fields": {"cups_current": 134, "name": "sellpoint10", "company": 0, "station": 10, "cups_desired": 134}, "model": "website.SellPoint"}, {"pk": 10, "fields": {"station": 10}, "model": "website.DropOff"}, {"pk": 11, "fields": {"lon": 9.02076959637, "name": "Bettwiesen", "lat": 47.498616599, "importance": 3}, "model": "website.Station"}, {"pk": 11, "fields": {"cups_current": 20, "name": "sellpoint11", "company": 0, "station": 11, "cups_desired": 20}, "model": "website.SellPoint"}, {"pk": 11, "fields": {"station": 11}, "model": "website.DropOff"}, {"pk": 12, "fields": {"lon": 7.10622789234, "name": "Belfaux CFF", "lat": 46.8169170976, "importance": 3}, "model": "website.Station"}, {"pk": 12, "fields": {"cups_current": 20, "name": "sellpoint12", "company": 0, "station": 12, "cups_desired": 20}, "model": "website.SellPoint"}, {"pk": 12, "fields": {"station": 12}, "model": "website.DropOff"}, {"pk": 13, "fields": {"lon": 8.72269985597, "name": "Biberbrugg", "lat": 47.1563731698, "importance": 3}, "model": "website.Station"}, {"pk": 13, "fields": {"cups_current": 26, "name": "sellpoint13", "company": 0, "station": 13, "cups_desired": 26}, "model": "website.SellPoint"}, {"pk": 13, "fields": {"station": 13}, "model": "website.DropOff"}, {"pk": 14, "fields": {"lon": 7.27247559035, "name": "Biel Mett", "lat": 47.1447131206, "importance": 3}, "model": "website.Station"}, {"pk": 14, "fields": {"cups_current": 20, "name": "sellpoint14", "company": 0, "station": 14, "cups_desired": 20}, "model": "website.SellPoint"}, {"pk": 14, "fields": {"station": 14}, "model": "website.DropOff"}, {"pk": 15, "fields": {"lon": 8.66913007113, "name": "Biberegg", "lat": 47.0933123123, "importance": 3}, "model": "website.Station"}, {"pk": 15, "fields": {"cups_current": 20, "name": "sellpoint15", "company": 0, "station": 15, "cups_desired": 20}, "model": "website.SellPoint"}, {"pk": 15, "fields": {"station": 15}, "model": "website.DropOff"}, {"pk": 16, "fields": {"lon": 6.55933195932, "name": "Bavois", "lat": 46.6876714456, "importance": 3}, "model": "website.Station"}, {"pk": 16, "fields": {"cups_current": 20, "name": "sellpoint16", "company": 0, "station": 16, "cups_desired": 20}, "model": "website.SellPoint"}, {"pk": 16, "fields": {"station": 16}, "model": "website.DropOff"}, {"pk": 17, "fields": {"lon": 8.31688138659, "name": "Ballwil", "lat": 47.1537643847, "importance": 3}, "model": "website.Station"}, {"pk": 17, "fields": {"cups_current": 20, "name": "sellpoint17", "company": 0, "station": 17, "cups_desired": 20}, "model": "website.SellPoint"}, {"pk": 17, "fields": {"station": 17}, "model": "website.DropOff"}, {"pk": 18, "fields": {"lon": 9.24146504156, "name": "Bischofszell Stadt", "lat": 47.4921416385, "importance": 3}, "model": "website.Station"}, {"pk": 18, "fields": {"cups_current": 20, "name": "sellpoint18", "company": 0, "station": 18, "cups_desired": 20}, "model": "website.SellPoint"}, {"pk": 18, "fields": {"station": 18}, "model": "website.DropOff"}, {"pk": 19, "fields": {"lon": 7.30510604689, "name": "Châteauneuf-Conthey", "lat": 46.2161054868, "importance": 3}, "model": "website.Station"}, {"pk": 19, "fields": {"cups_current": 20, "name": "sellpoint19", "company": 0, "station": 19, "cups_desired": 20}, "model": "website.SellPoint"}, {"pk": 19, "fields": {"station": 19}, "model": "website.DropOff"}, {"pk": 20, "fields": {"lon": 8.31527271204, "name": "Boswil-Bünzen", "lat": 47.305174603, "importance": 3}, "model": "website.Station"}, {"pk": 20, "fields": {"cups_current": 20, "name": "sellpoint20", "company": 0, "station": 20, "cups_desired": 20}, "model": "website.SellPoint"}, {"pk": 20, "fields": {"station": 20}, "model": "website.DropOff"}, {"pk": 21, "fields": {"lon": 6.69932418234, "name": "Bossière", "lat": 46.5097374876, "importance": 3}, "model": "website.Station"}, {"pk": 21, "fields": {"cups_current": 20, "name": "sellpoint21", "company": 0, "station": 21, "cups_desired": 20}, "model": "website.SellPoint"}, {"pk": 21, "fields": {"station": 21}, "model": "website.DropOff"}, {"pk": 22, "fields": {"lon": 8.6926955866, "name": "Burghalden", "lat": 47.2086734144, "importance": 3}, "model": "website.Station"}, {"pk": 22, "fields": {"cups_current": 20, "name": "sellpoint22", "company": 0, "station": 22, "cups_desired": 20}, "model": "website.SellPoint"}, {"pk": 22, "fields": {"station": 22}, "model": "website.DropOff"}, {"pk": 23, "fields": {"lon": 6.87711567196, "name": "Burier", "lat": 46.4478763825, "importance": 3}, "model": "website.Station"}, {"pk": 23, "fields": {"cups_current": 20, "name": "sellpoint23", "company": 0, "station": 23, "cups_desired": 20}, "model": "website.SellPoint"}, {"pk": 23, "fields": {"station": 23}, "model": "website.DropOff"}, {"pk": 24, "fields": {"lon": 8.20882744791, "name": "Brugg AG", "lat": 47.4808528316, "importance": 4}, "model": "website.Station"}, {"pk": 24, "fields": {"cups_current": 200, "name": "sellpoint24", "company": 0, "station": 24, "cups_desired": 200}, "model": "website.SellPoint"}, {"pk": 24, "fields": {"station": 24}, "model": "website.DropOff"}, {"pk": 25, "fields": {"lon": 8.82270102308, "name": "Bubikon", "lat": 47.2708395927, "importance": 4}, "model": "website.Station"}, {"pk": 25, "fields": {"cups_current": 51, "name": "sellpoint25", "company": 0, "station": 25, "cups_desired": 51}, "model": "website.SellPoint"}, {"pk": 25, "fields": {"station": 25}, "model": "website.DropOff"}, {"pk": 26, "fields": {"lon": 6.83768561375, "name": "Bôle", "lat": 46.9689572835, "importance": 3}, "model": "website.Station"}, {"pk": 26, "fields": {"cups_current": 20, "name": "sellpoint26", "company": 0, "station": 26, "cups_desired": 20}, "model": "website.SellPoint"}, {"pk": 26, "fields": {"station": 26}, "model": "website.DropOff"}, {"pk": 27, "fields": {"lon": 6.83768561375, "name": "Bressonnaz", "lat": 46.9689572835, "importance": 3}, "model": "website.Station"}, {"pk": 27, "fields": {"cups_current": 20, "name": "sellpoint27", "company": 0, "station": 27, "cups_desired": 20}, "model": "website.SellPoint"}, {"pk": 27, "fields": {"station": 27}, "model": "website.DropOff"}, {"pk": 28, "fields": {"lon": 8.97453911285, "name": "Hüttlingen-Mettendorf", "lat": 47.5823394904, "importance": 3}, "model": "website.Station"}, {"pk": 28, "fields": {"cups_current": 20, "name": "sellpoint28", "company": 0, "station": 28, "cups_desired": 20}, "model": "website.SellPoint"}, {"pk": 28, "fields": {"station": 28}, "model": "website.DropOff"}, {"pk": 29, "fields": {"lon": 8.69481326415, "name": "Hettlingen", "lat": 47.5454376137, "importance": 3}, "model": "website.Station"}, {"pk": 29, "fields": {"cups_current": 20, "name": "sellpoint29", "company": 0, "station": 29, "cups_desired": 20}, "model": "website.SellPoint"}, {"pk": 29, "fields": {"station": 29}, "model": "website.DropOff"}, {"pk": 30, "fields": {"lon": 9.25157587262, "name": "Hauptwil", "lat": 47.4768608536, "importance": 3}, "model": "website.Station"}, {"pk": 30, "fields": {"cups_current": 20, "name": "sellpoint30", "company": 0, "station": 30, "cups_desired": 20}, "model": "website.SellPoint"}, {"pk": 30, "fields": {"station": 30}, "model": "website.DropOff"}, {"pk": 31, "fields": {"lon": 8.31271109334, "name": "Hergiswil Matt", "lat": 46.9936310359, "importance": 3}, "model": "website.Station"}, {"pk": 31, "fields": {"cups_current": 20, "name": "sellpoint31", "company": 0, "station": 31, "cups_desired": 20}, "model": "website.SellPoint"}, {"pk": 31, "fields": {"station": 31}, "model": "website.DropOff"}, {"pk": 32, "fields": {"lon": 8.81429184846, "name": "Kempraten", "lat": 47.2383929337, "importance": 3}, "model": "website.Station"}, {"pk": 32, "fields": {"cups_current": 20, "name": "sellpoint32", "company": 0, "station": 32, "cups_desired": 20}, "model": "website.SellPoint"}, {"pk": 32, "fields": {"station": 32}, "model": "website.DropOff"}, {"pk": 33, "fields": {"lon": 8.44595351443, "name": "Hedingen", "lat": 47.2987825148, "importance": 3}, "model": "website.Station"}, {"pk": 33, "fields": {"cups_current": 22, "name": "sellpoint33", "company": 0, "station": 33, "cups_desired": 22}, "model": "website.SellPoint"}, {"pk": 33, "fields": {"station": 33}, "model": "website.DropOff"}, {"pk": 34, "fields": {"lon": 7.78720690694, "name": "Itingen", "lat": 47.4672660009, "importance": 2}, "model": "website.Station"}, {"pk": 34, "fields": {"cups_current": 10, "name": "sellpoint34", "company": 0, "station": 34, "cups_desired": 10}, "model": "website.SellPoint"}, {"pk": 34, "fields": {"station": 34}, "model": "website.DropOff"}, {"pk": 35, "fields": {"lon": 8.30697000723, "name": "Horw", "lat": 47.017477083, "importance": 3}, "model": "website.Station"}, {"pk": 35, "fields": {"cups_current": 20, "name": "sellpoint35", "company": 0, "station": 35, "cups_desired": 20}, "model": "website.SellPoint"}, {"pk": 35, "fields": {"station": 35}, "model": "website.DropOff"}, {"pk": 36, "fields": {"lon": 8.81859374588, "name": "Etzwilen", "lat": 47.6611436806, "importance": 3}, "model": "website.Station"}, {"pk": 36, "fields": {"cups_current": 20, "name": "sellpoint36", "company": 0, "station": 36, "cups_desired": 20}, "model": "website.SellPoint"}, {"pk": 36, "fields": {"station": 36}, "model": "website.DropOff"}, {"pk": 37, "fields": {"lon": 7.15102324519, "name": "Fribourg/Freiburg", "lat": 46.8032670642, "importance": 4}, "model": "website.Station"}, {"pk": 37, "fields": {"cups_current": 216, "name": "sellpoint37", "company": 0, "station": 37, "cups_desired": 216}, "model": "website.SellPoint"}, {"pk": 37, "fields": {"station": 37}, "model": "website.DropOff"}, {"pk": 38, "fields": {"lon": 6.89428928731, "name": "Granges-Marnand", "lat": 46.7588357696, "importance": 3}, "model": "website.Station"}, {"pk": 38, "fields": {"cups_current": 20, "name": "sellpoint38", "company": 0, "station": 38, "cups_desired": 20}, "model": "website.SellPoint"}, {"pk": 38, "fields": {"station": 38}, "model": "website.DropOff"}, {"pk": 39, "fields": {"lon": 8.91701626605, "name": "Guntershausen", "lat": 47.4741351028, "importance": 3}, "model": "website.Station"}, {"pk": 39, "fields": {"cups_current": 20, "name": "sellpoint39", "company": 0, "station": 39, "cups_desired": 20}, "model": "website.SellPoint"}, {"pk": 39, "fields": {"station": 39}, "model": "website.DropOff"}, {"pk": 40, "fields": {"lon": 8.39477668629, "name": "Gisikon-Root", "lat": 47.1213263146, "importance": 2}, "model": "website.Station"}, {"pk": 40, "fields": {"cups_current": 10, "name": "sellpoint40", "company": 0, "station": 40, "cups_desired": 10}, "model": "website.SellPoint"}, {"pk": 40, "fields": {"station": 40}, "model": "website.DropOff"}, {"pk": 41, "fields": {"lon": 7.59198326877, "name": "Grellingen", "lat": 47.4412906001, "importance": 2}, "model": "website.Station"}, {"pk": 41, "fields": {"cups_current": 17, "name": "sellpoint41", "company": 0, "station": 41, "cups_desired": 17}, "model": "website.SellPoint"}, {"pk": 41, "fields": {"station": 41}, "model": "website.DropOff"}, {"pk": 42, "fields": {"lon": 6.72264722367, "name": "Grandvaux", "lat": 46.4969419201, "importance": 3}, "model": "website.Station"}, {"pk": 42, "fields": {"cups_current": 20, "name": "sellpoint42", "company": 0, "station": 42, "cups_desired": 20}, "model": "website.SellPoint"}, {"pk": 42, "fields": {"station": 42}, "model": "website.DropOff"}, {"pk": 43, "fields": {"lon": 9.31675442795, "name": "Gübsensee", "lat": 47.3979011244, "importance": 3}, "model": "website.Station"}, {"pk": 43, "fields": {"cups_current": 20, "name": "sellpoint43", "company": 0, "station": 43, "cups_desired": 20}, "model": "website.SellPoint"}, {"pk": 43, "fields": {"station": 43}, "model": "website.DropOff"}, {"pk": 44, "fields": {"lon": 7.07459265792, "name": "Faoug", "lat": 46.9082315978, "importance": 3}, "model": "website.Station"}, {"pk": 44, "fields": {"cups_current": 20, "name": "sellpoint44", "company": 0, "station": 44, "cups_desired": 20}, "model": "website.SellPoint"}, {"pk": 44, "fields": {"station": 44}, "model": "website.DropOff"}, {"pk": 45, "fields": {"lon": 6.26913801937, "name": "Gland", "lat": 46.419975355, "importance": 4}, "model": "website.Station"}, {"pk": 45, "fields": {"cups_current": 57, "name": "sellpoint45", "company": 0, "station": 45, "cups_desired": 57}, "model": "website.SellPoint"}, {"pk": 45, "fields": {"station": 45}, "model": "website.DropOff"}, {"pk": 46, "fields": {"lon": 8.27679952708, "name": "Emmenbrücke Gersag", "lat": 47.0783132004, "importance": 3}, "model": "website.Station"}, {"pk": 46, "fields": {"cups_current": 30, "name": "sellpoint46", "company": 0, "station": 46, "cups_desired": 30}, "model": "website.SellPoint"}, {"pk": 46, "fields": {"station": 46}, "model": "website.DropOff"}, {"pk": 47, "fields": {"lon": 6.84295890069, "name": "Estavayer-le-Lac", "lat": 46.8444961926, "importance": 2}, "model": "website.Station"}, {"pk": 47, "fields": {"cups_current": 12, "name": "sellpoint47", "company": 0, "station": 47, "cups_desired": 12}, "model": "website.SellPoint"}, {"pk": 47, "fields": {"station": 47}, "model": "website.DropOff"}, {"pk": 48, "fields": {"lon": 7.61110691339, "name": "Dornach-Arlesheim", "lat": 47.488608339, "importance": 4}, "model": "website.Station"}, {"pk": 48, "fields": {"cups_current": 48, "name": "sellpoint48", "company": 0, "station": 48, "cups_desired": 48}, "model": "website.SellPoint"}, {"pk": 48, "fields": {"station": 48}, "model": "website.DropOff"}, {"pk": 49, "fields": {"lon": 6.58065762221, "name": "Essert-Pittet", "lat": 46.7276595753, "importance": 3}, "model": "website.Station"}, {"pk": 49, "fields": {"cups_current": 20, "name": "sellpoint49", "company": 0, "station": 49, "cups_desired": 20}, "model": "website.SellPoint"}, {"pk": 49, "fields": {"station": 49}, "model": "website.DropOff"}, {"pk": 50, "fields": {"lon": 6.81105588343, "name": "Ecublens-Rue", "lat": 46.6104179611, "importance": 3}, "model": "website.Station"}, {"pk": 50, "fields": {"cups_current": 20, "name": "sellpoint50", "company": 0, "station": 50, "cups_desired": 20}, "model": "website.SellPoint"}, {"pk": 50, "fields": {"station": 50}, "model": "website.DropOff"}, {"pk": 51, "fields": {"lon": 8.32277893852, "name": "Eschenbach", "lat": 47.1323911487, "importance": 3}, "model": "website.Station"}, {"pk": 51, "fields": {"cups_current": 20, "name": "sellpoint51", "company": 0, "station": 51, "cups_desired": 20}, "model": "website.SellPoint"}, {"pk": 51, "fields": {"station": 51}, "model": "website.DropOff"}, {"pk": 52, "fields": {"lon": 8.24230319429, "name": "Ermensee", "lat": 47.2296890898, "importance": 3}, "model": "website.Station"}, {"pk": 52, "fields": {"cups_current": 20, "name": "sellpoint52", "company": 0, "station": 52, "cups_desired": 20}, "model": "website.SellPoint"}, {"pk": 52, "fields": {"station": 52}, "model": "website.DropOff"}, {"pk": 53, "fields": {"lon": 8.40264298232, "name": "Engelberg", "lat": 46.8195231702, "importance": 2}, "model": "website.Station"}, {"pk": 53, "fields": {"cups_current": 18, "name": "sellpoint53", "company": 0, "station": 53, "cups_desired": 18}, "model": "website.SellPoint"}, {"pk": 53, "fields": {"station": 53}, "model": "website.DropOff"}, {"pk": 54, "fields": {"lon": 6.60765826253, "name": "Ependes", "lat": 46.7464094417, "importance": 3}, "model": "website.Station"}, {"pk": 54, "fields": {"cups_current": 20, "name": "sellpoint54", "company": 0, "station": 54, "cups_desired": 20}, "model": "website.SellPoint"}, {"pk": 54, "fields": {"station": 54}, "model": "website.DropOff"}, {"pk": 55, "fields": {"lon": 6.42713908598, "name": "Etoy", "lat": 46.4751599503, "importance": 2}, "model": "website.Station"}, {"pk": 55, "fields": {"cups_current": 12, "name": "sellpoint55", "company": 0, "station": 55, "cups_desired": 12}, "model": "website.SellPoint"}, {"pk": 55, "fields": {"station": 55}, "model": "website.DropOff"}, {"pk": 56, "fields": {"lon": 9.02436242331, "name": "Diesbach-Betschwanden", "lat": 46.9461769693, "importance": 3}, "model": "website.Station"}, {"pk": 56, "fields": {"cups_current": 20, "name": "sellpoint56", "company": 0, "station": 56, "cups_desired": 20}, "model": "website.SellPoint"}, {"pk": 56, "fields": {"station": 56}, "model": "website.DropOff"}, {"pk": 57, "fields": {"lon": 6.9571860007, "name": "Corcelles-Sud", "lat": 46.8288436102, "importance": 3}, "model": "website.Station"}, {"pk": 57, "fields": {"cups_current": 20, "name": "sellpoint57", "company": 0, "station": 57, "cups_desired": 20}, "model": "website.SellPoint"}, {"pk": 57, "fields": {"station": 57}, "model": "website.DropOff"}, {"pk": 58, "fields": {"lon": 7.05412061848, "name": "Cormoret", "lat": 47.1729358067, "importance": 3}, "model": "website.Station"}, {"pk": 58, "fields": {"cups_current": 20, "name": "sellpoint58", "company": 0, "station": 58, "cups_desired": 20}, "model": "website.SellPoint"}, {"pk": 58, "fields": {"station": 58}, "model": "website.DropOff"}, {"pk": 59, "fields": {"lon": 7.10729623806, "name": "Cortébert", "lat": 47.1893284366, "importance": 3}, "model": "website.Station"}, {"pk": 59, "fields": {"cups_current": 20, "name": "sellpoint59", "company": 0, "station": 59, "cups_desired": 20}, "model": "website.SellPoint"}, {"pk": 59, "fields": {"station": 59}, "model": "website.DropOff"}, {"pk": 60, "fields": {"lon": 7.12419139803, "name": "Courgenay", "lat": 47.4052177358, "importance": 3}, "model": "website.Station"}, {"pk": 60, "fields": {"cups_current": 20, "name": "sellpoint60", "company": 0, "station": 60, "cups_desired": 20}, "model": "website.SellPoint"}, {"pk": 60, "fields": {"station": 60}, "model": "website.DropOff"}, {"pk": 61, "fields": {"lon": 6.97748421108, "name": "Cousset", "lat": 46.8186006837, "importance": 3}, "model": "website.Station"}, {"pk": 61, "fields": {"cups_current": 20, "name": "sellpoint61", "company": 0, "station": 61, "cups_desired": 20}, "model": "website.SellPoint"}, {"pk": 61, "fields": {"station": 61}, "model": "website.DropOff"}, {"pk": 62, "fields": {"lon": 7.03479684592, "name": "Cottens", "lat": 46.7512079019, "importance": 3}, "model": "website.Station"}, {"pk": 62, "fields": {"cups_current": 20, "name": "sellpoint62", "company": 0, "station": 62, "cups_desired": 20}, "model": "website.SellPoint"}, {"pk": 62, "fields": {"station": 62}, "model": "website.DropOff"}, {"pk": 63, "fields": {"lon": 8.39205809023, "name": "Dallenwil", "lat": 46.9337794802, "importance": 3}, "model": "website.Station"}, {"pk": 63, "fields": {"cups_current": 20, "name": "sellpoint63", "company": 0, "station": 63, "cups_desired": 20}, "model": "website.SellPoint"}, {"pk": 63, "fields": {"station": 63}, "model": "website.DropOff"}, {"pk": 64, "fields": {"lon": 7.61889907416, "name": "Deitingen", "lat": 47.218217892, "importance": 3}, "model": "website.Station"}, {"pk": 64, "fields": {"cups_current": 20, "name": "sellpoint64", "company": 0, "station": 64, "cups_desired": 20}, "model": "website.SellPoint"}, {"pk": 64, "fields": {"station": 64}, "model": "website.DropOff"}, {"pk": 65, "fields": {"lon": 7.97875336334, "name": "Däniken", "lat": 47.356386391, "importance": 3}, "model": "website.Station"}, {"pk": 65, "fields": {"cups_current": 20, "name": "sellpoint65", "company": 0, "station": 65, "cups_desired": 20}, "model": "website.SellPoint"}, {"pk": 65, "fields": {"station": 65}, "model": "website.DropOff"}, {"pk": 66, "fields": {"lon": 8.70557069755, "name": "Kemptthal", "lat": 47.452833265, "importance": 3}, "model": "website.Station"}, {"pk": 66, "fields": {"cups_current": 20, "name": "sellpoint66", "company": 0, "station": 66, "cups_desired": 20}, "model": "website.SellPoint"}, {"pk": 66, "fields": {"station": 66}, "model": "website.DropOff"}, {"pk": 67, "fields": {"lon": 8.4667085831, "name": "Knonau", "lat": 47.2202591199, "importance": 3}, "model": "website.Station"}, {"pk": 67, "fields": {"cups_current": 20, "name": "sellpoint67", "company": 0, "station": 67, "cups_desired": 20}, "model": "website.SellPoint"}, {"pk": 67, "fields": {"station": 67}, "model": "website.DropOff"}, {"pk": 68, "fields": {"lon": 8.35419430986, "name": "Killwangen-Spreitenbach", "lat": 47.433328238, "importance": 3}, "model": "website.Station"}, {"pk": 68, "fields": {"cups_current": 36, "name": "sellpoint68", "company": 0, "station": 68, "cups_desired": 36}, "model": "website.SellPoint"}, {"pk": 68, "fields": {"station": 68}, "model": "website.DropOff"}, {"pk": 69, "fields": {"lon": 8.24881875083, "name": "Klingnau", "lat": 47.5820892736, "importance": 3}, "model": "website.Station"}, {"pk": 69, "fields": {"cups_current": 20, "name": "sellpoint69", "company": 0, "station": 69, "cups_desired": 20}, "model": "website.SellPoint"}, {"pk": 69, "fields": {"station": 69}, "model": "website.DropOff"}, {"pk": 70, "fields": {"lon": 8.0264455205, "name": "Kölliken", "lat": 47.3372920119, "importance": 3}, "model": "website.Station"}, {"pk": 70, "fields": {"cups_current": 20, "name": "sellpoint70", "company": 0, "station": 70, "cups_desired": 20}, "model": "website.SellPoint"}, {"pk": 70, "fields": {"station": 70}, "model": "website.DropOff"}, {"pk": 71, "fields": {"lon": 9.31740544782, "name": "Kesswil", "lat": 47.5954978156, "importance": 3}, "model": "website.Station"}, {"pk": 71, "fields": {"cups_current": 20, "name": "sellpoint71", "company": 0, "station": 71, "cups_desired": 20}, "model": "website.SellPoint"}, {"pk": 71, "fields": {"station": 71}, "model": "website.DropOff"}, {"pk": 72, "fields": {"lon": 8.69233239506, "name": "Männedorf", "lat": 47.2534223208, "importance": 4}, "model": "website.Station"}, {"pk": 72, "fields": {"cups_current": 51, "name": "sellpoint72", "company": 0, "station": 72, "cups_desired": 51}, "model": "website.SellPoint"}, {"pk": 72, "fields": {"station": 72}, "model": "website.DropOff"}, {"pk": 73, "fields": {"lon": 9.14260584875, "name": "Mogelsberg", "lat": 47.3637431434, "importance": 3}, "model": "website.Station"}, {"pk": 73, "fields": {"cups_current": 20, "name": "sellpoint73", "company": 0, "station": 73, "cups_desired": 20}, "model": "website.SellPoint"}, {"pk": 73, "fields": {"station": 73}, "model": "website.DropOff"}, {"pk": 74, "fields": {"lon": 6.91043275261, "name": "Montreux", "lat": 46.4358743527, "importance": 4}, "model": "website.Station"}, {"pk": 74, "fields": {"cups_current": 155, "name": "sellpoint74", "company": 0, "station": 74, "cups_desired": 155}, "model": "website.SellPoint"}, {"pk": 74, "fields": {"station": 74}, "model": "website.DropOff"}, {"pk": 75, "fields": {"lon": 9.23610817435, "name": "Münsterlingen Spital", "lat": 47.6320503917, "importance": 3}, "model": "website.Station"}, {"pk": 75, "fields": {"cups_current": 20, "name": "sellpoint75", "company": 0, "station": 75, "cups_desired": 20}, "model": "website.SellPoint"}, {"pk": 75, "fields": {"station": 75}, "model": "website.DropOff"}, {"pk": 76, "fields": {"lon": 8.33728023957, "name": "Luzern Verkehrshaus", "lat": 47.053927868, "importance": 3}, "model": "website.Station"}, {"pk": 76, "fields": {"cups_current": 20, "name": "sellpoint76", "company": 0, "station": 76, "cups_desired": 20}, "model": "website.SellPoint"}, {"pk": 76, "fields": {"station": 76}, "model": "website.DropOff"}, {"pk": 77, "fields": {"lon": 7.27593219578, "name": "Malleray-Bévilard", "lat": 47.2387040498, "importance": 3}, "model": "website.Station"}, {"pk": 77, "fields": {"cups_current": 20, "name": "sellpoint77", "company": 0, "station": 77, "cups_desired": 20}, "model": "website.SellPoint"}, {"pk": 77, "fields": {"station": 77}, "model": "website.DropOff"}, {"pk": 78, "fields": {"lon": 8.23513921004, "name": "Mägenwil", "lat": 47.4145021864, "importance": 3}, "model": "website.Station"}, {"pk": 78, "fields": {"cups_current": 20, "name": "sellpoint78", "company": 0, "station": 78, "cups_desired": 20}, "model": "website.SellPoint"}, {"pk": 78, "fields": {"station": 78}, "model": "website.DropOff"}, {"pk": 79, "fields": {"lon": 6.98565622637, "name": "Massongex", "lat": 46.2411990719, "importance": 3}, "model": "website.Station"}, {"pk": 79, "fields": {"cups_current": 20, "name": "sellpoint79", "company": 0, "station": 79, "cups_desired": 20}, "model": "website.SellPoint"}, {"pk": 79, "fields": {"station": 79}, "model": "website.DropOff"}, {"pk": 80, "fields": {"lon": 9.52919552142, "name": "Maienfeld", "lat": 47.0038340592, "importance": 3}, "model": "website.Station"}, {"pk": 80, "fields": {"cups_current": 20, "name": "sellpoint80", "company": 0, "station": 80, "cups_desired": 20}, "model": "website.SellPoint"}, {"pk": 80, "fields": {"station": 80}, "model": "website.DropOff"}, {"pk": 81, "fields": {"lon": 8.9483527013, "name": "Melide", "lat": 45.9557228958, "importance": 3}, "model": "website.Station"}, {"pk": 81, "fields": {"cups_current": 20, "name": "sellpoint81", "company": 0, "station": 81, "cups_desired": 20}, "model": "website.SellPoint"}, {"pk": 81, "fields": {"station": 81}, "model": "website.DropOff"}, {"pk": 82, "fields": {"lon": 8.56176987445, "name": "Opfikon", "lat": 47.4299514492, "importance": 3}, "model": "website.Station"}, {"pk": 82, "fields": {"cups_current": 28, "name": "sellpoint82", "company": 0, "station": 82, "cups_desired": 28}, "model": "website.SellPoint"}, {"pk": 82, "fields": {"station": 82}, "model": "website.DropOff"}, {"pk": 83, "fields": {"lon": 6.90335823773, "name": "Neuchâtel-Serrières", "lat": 46.9839549788, "importance": 3}, "model": "website.Station"}, {"pk": 83, "fields": {"cups_current": 20, "name": "sellpoint83", "company": 0, "station": 83, "cups_desired": 20}, "model": "website.SellPoint"}, {"pk": 83, "fields": {"station": 83}, "model": "website.DropOff"}, {"pk": 84, "fields": {"lon": 7.95891948093, "name": "Oberried am Brienzersee", "lat": 46.736557734, "importance": 3}, "model": "website.Station"}, {"pk": 84, "fields": {"cups_current": 20, "name": "sellpoint84", "company": 0, "station": 84, "cups_desired": 20}, "model": "website.SellPoint"}, {"pk": 84, "fields": {"station": 84}, "model": "website.DropOff"}, {"pk": 85, "fields": {"lon": 9.37583489866, "name": "Neukirch-Egnach", "lat": 47.5387945817, "importance": 3}, "model": "website.Station"}, {"pk": 85, "fields": {"cups_current": 20, "name": "sellpoint85", "company": 0, "station": 85, "cups_desired": 20}, "model": "website.SellPoint"}, {"pk": 85, "fields": {"station": 85}, "model": "website.DropOff"}, {"pk": 86, "fields": {"lon": 8.04837791732, "name": "Oberentfelden", "lat": 47.3564807476, "importance": 3}, "model": "website.Station"}, {"pk": 86, "fields": {"cups_current": 20, "name": "sellpoint86", "company": 0, "station": 86, "cups_desired": 20}, "model": "website.SellPoint"}, {"pk": 86, "fields": {"station": 86}, "model": "website.DropOff"}, {"pk": 87, "fields": {"lon": 8.57844974795, "name": "Oberrieden", "lat": 47.2796754088, "importance": 2}, "model": "website.Station"}, {"pk": 87, "fields": {"cups_current": 10, "name": "sellpoint87", "company": 0, "station": 87, "cups_desired": 10}, "model": "website.SellPoint"}, {"pk": 87, "fields": {"station": 87}, "model": "website.DropOff"}, {"pk": 88, "fields": {"lon": 8.64661156441, "name": "Pfungen", "lat": 47.5160332387, "importance": 2}, "model": "website.Station"}, {"pk": 88, "fields": {"cups_current": 14, "name": "sellpoint88", "company": 0, "station": 88, "cups_desired": 14}, "model": "website.SellPoint"}, {"pk": 88, "fields": {"station": 88}, "model": "website.DropOff"}, {"pk": 89, "fields": {"lon": 8.3397982935, "name": "Muri AG", "lat": 47.2766601869, "importance": 3}, "model": "website.Station"}, {"pk": 89, "fields": {"cups_current": 22, "name": "sellpoint89", "company": 0, "station": 89, "cups_desired": 22}, "model": "website.SellPoint"}, {"pk": 89, "fields": {"station": 89}, "model": "website.DropOff"}, {"pk": 90, "fields": {"lon": 7.907688105, "name": "Olten", "lat": 47.3519295325, "importance": 5}, "model": "website.Station"}, {"pk": 90, "fields": {"cups_current": 693, "name": "sellpoint90", "company": 0, "station": 90, "cups_desired": 693}, "model": "website.SellPoint"}, {"pk": 90, "fields": {"station": 90}, "model": "website.DropOff"}, {"pk": 91, "fields": {"lon": 6.83710274179, "name": "Oron", "lat": 46.5725335165, "importance": 3}, "model": "website.Station"}, {"pk": 91, "fields": {"cups_current": 20, "name": "sellpoint91", "company": 0, "station": 91, "cups_desired": 20}, "model": "website.SellPoint"}, {"pk": 91, "fields": {"station": 91}, "model": "website.DropOff"}, {"pk": 92, "fields": {"lon": 6.74615360469, "name": "Le Locle", "lat": 47.0578541411, "importance": 2}, "model": "website.Station"}, {"pk": 92, "fields": {"cups_current": 19, "name": "sellpoint92", "company": 0, "station": 92, "cups_desired": 19}, "model": "website.SellPoint"}, {"pk": 92, "fields": {"station": 92}, "model": "website.DropOff"}, {"pk": 93, "fields": {"lon": 8.80135894865, "name": "Locarno", "lat": 46.1724273965, "importance": 4}, "model": "website.Station"}, {"pk": 93, "fields": {"cups_current": 59, "name": "sellpoint93", "company": 0, "station": 93, "cups_desired": 59}, "model": "website.SellPoint"}, {"pk": 93, "fields": {"station": 93}, "model": "website.DropOff"}, {"pk": 94, "fields": {"lon": 7.58351524915, "name": "Luterbach-Attisholz", "lat": 47.2171432544, "importance": 3}, "model": "website.Station"}, {"pk": 94, "fields": {"cups_current": 20, "name": "sellpoint94", "company": 0, "station": 94, "cups_desired": 20}, "model": "website.SellPoint"}, {"pk": 94, "fields": {"station": 94}, "model": "website.DropOff"}, {"pk": 95, "fields": {"lon": 6.12533012554, "name": "Lancy-Pont-Rouge", "lat": 46.1888976308, "importance": 2}, "model": "website.Station"}, {"pk": 95, "fields": {"cups_current": 11, "name": "sellpoint95", "company": 0, "station": 95, "cups_desired": 11}, "model": "website.SellPoint"}, {"pk": 95, "fields": {"station": 95}, "model": "website.DropOff"}, {"pk": 96, "fields": {"lon": 9.24694004807, "name": "Landschlacht", "lat": 47.6288954671, "importance": 3}, "model": "website.Station"}, {"pk": 96, "fields": {"cups_current": 20, "name": "sellpoint96", "company": 0, "station": 96, "cups_desired": 20}, "model": "website.SellPoint"}, {"pk": 96, "fields": {"station": 96}, "model": "website.DropOff"}, {"pk": 97, "fields": {"lon": 7.78470885276, "name": "Langenthal", "lat": 47.2173003777, "importance": 4}, "model": "website.Station"}, {"pk": 97, "fields": {"cups_current": 114, "name": "sellpoint97", "company": 0, "station": 97, "cups_desired": 114}, "model": "website.SellPoint"}, {"pk": 97, "fields": {"station": 97}, "model": "website.DropOff"}, {"pk": 98, "fields": {"lon": 9.04692465402, "name": "Leuggelbach", "lat": 46.9757415966, "importance": 3}, "model": "website.Station"}, {"pk": 98, "fields": {"cups_current": 20, "name": "sellpoint98", "company": 0, "station": 98, "cups_desired": 20}, "model": "website.SellPoint"}, {"pk": 98, "fields": {"station": 98}, "model": "website.DropOff"}, {"pk": 99, "fields": {"lon": 5.99999627842, "name": "La Plaine", "lat": 46.1786594705, "importance": 3}, "model": "website.Station"}, {"pk": 99, "fields": {"cups_current": 20, "name": "sellpoint99", "company": 0, "station": 99, "cups_desired": 20}, "model": "website.SellPoint"}, {"pk": 99, "fields": {"station": 99}, "model": "website.DropOff"}, {"pk": 100, "fields": {"lon": 8.69015147937, "name": "Ambri-Piotta", "lat": 46.510616719, "importance": 3}, "model": "website.Station"}, {"pk": 100, "fields": {"cups_current": 20, "name": "sellpoint100", "company": 0, "station": 100, "cups_desired": 20}, "model": "website.SellPoint"}, {"pk": 100, "fields": {"station": 100}, "model": "website.DropOff"}, {"pk": 101, "fields": {"lon": 8.90328450849, "name": "Aadorf", "lat": 47.4881178542, "importance": 2}, "model": "website.Station"}, {"pk": 101, "fields": {"cups_current": 17, "name": "sellpoint101", "company": 0, "station": 101, "cups_desired": 17}, "model": "website.SellPoint"}, {"pk": 101, "fields": {"station": 101}, "model": "website.DropOff"}, {"pk": 102, "fields": {"lon": 8.63156572016, "name": "Altdorf", "lat": 46.8757407268, "importance": 3}, "model": "website.Station"}, {"pk": 102, "fields": {"cups_current": 20, "name": "sellpoint102", "company": 0, "station": 102, "cups_desired": 20}, "model": "website.SellPoint"}, {"pk": 102, "fields": {"station": 102}, "model": "website.DropOff"}, {"pk": 103, "fields": {"lon": 9.43333858591, "name": "Arbon", "lat": 47.5105854479, "importance": 2}, "model": "website.Station"}, {"pk": 103, "fields": {"cups_current": 16, "name": "sellpoint103", "company": 0, "station": 103, "cups_desired": 16}, "model": "website.SellPoint"}, {"pk": 103, "fields": {"station": 103}, "model": "website.DropOff"}, {"pk": 104, "fields": {"lon": 8.84618065529, "name": "Islikon", "lat": 47.5478354373, "importance": 3}, "model": "website.Station"}, {"pk": 104, "fields": {"cups_current": 20, "name": "sellpoint104", "company": 0, "station": 104, "cups_desired": 20}, "model": "website.SellPoint"}, {"pk": 104, "fields": {"station": 104}, "model": "website.DropOff"}, {"pk": 105, "fields": {"lon": 8.83969785564, "name": "Hinwil", "lat": 47.3000509, "importance": 3}, "model": "website.Station"}, {"pk": 105, "fields": {"cups_current": 28, "name": "sellpoint105", "company": 0, "station": 105, "cups_desired": 28}, "model": "website.SellPoint"}, {"pk": 105, "fields": {"station": 105}, "model": "website.DropOff"}, {"pk": 106, "fields": {"lon": 7.20929652415, "name": "Glovelier", "lat": 47.3352002384, "importance": 3}, "model": "website.Station"}, {"pk": 106, "fields": {"cups_current": 20, "name": "sellpoint106", "company": 0, "station": 106, "cups_desired": 20}, "model": "website.SellPoint"}, {"pk": 106, "fields": {"station": 106}, "model": "website.DropOff"}, {"pk": 107, "fields": {"lon": 8.61271954112, "name": "Herrliberg-Feldmeilen", "lat": 47.2818232851, "importance": 4}, "model": "website.Station"}, {"pk": 107, "fields": {"cups_current": 40, "name": "sellpoint107", "company": 0, "station": 107, "cups_desired": 40}, "model": "website.SellPoint"}, {"pk": 107, "fields": {"station": 107}, "model": "website.DropOff"}, {"pk": 108, "fields": {"lon": 8.44989778178, "name": "Hünenberg Chämleten", "lat": 47.1691518563, "importance": 3}, "model": "website.Station"}, {"pk": 108, "fields": {"cups_current": 20, "name": "sellpoint108", "company": 0, "station": 108, "cups_desired": 20}, "model": "website.SellPoint"}, {"pk": 108, "fields": {"station": 108}, "model": "website.DropOff"}, {"pk": 109, "fields": {"lon": 9.35870895961, "name": "Häggenschwil-Winden", "lat": 47.5038584595, "importance": 3}, "model": "website.Station"}, {"pk": 109, "fields": {"cups_current": 20, "name": "sellpoint109", "company": 0, "station": 109, "cups_desired": 20}, "model": "website.SellPoint"}, {"pk": 109, "fields": {"station": 109}, "model": "website.DropOff"}, {"pk": 110, "fields": {"lon": 8.45007424526, "name": "Hünenberg Zythus", "lat": 47.17360308, "importance": 2}, "model": "website.Station"}, {"pk": 110, "fields": {"cups_current": 13, "name": "sellpoint110", "company": 0, "station": 110, "cups_desired": 13}, "model": "website.SellPoint"}, {"pk": 110, "fields": {"station": 110}, "model": "website.DropOff"}, {"pk": 111, "fields": {"lon": 8.51282074899, "name": "Hüntwangen-Wil", "lat": 47.5812668467, "importance": 2}, "model": "website.Station"}, {"pk": 111, "fields": {"cups_current": 11, "name": "sellpoint111", "company": 0, "station": 111, "cups_desired": 11}, "model": "website.SellPoint"}, {"pk": 111, "fields": {"station": 111}, "model": "website.DropOff"}, {"pk": 112, "fields": {"lon": 8.28868696709, "name": "Hochdorf", "lat": 47.1669743615, "importance": 2}, "model": "website.Station"}, {"pk": 112, "fields": {"cups_current": 17, "name": "sellpoint112", "company": 0, "station": 112, "cups_desired": 17}, "model": "website.SellPoint"}, {"pk": 112, "fields": {"station": 112}, "model": "website.DropOff"}, {"pk": 113, "fields": {"lon": 8.80072915334, "name": "Hurden", "lat": 47.2141479959, "importance": 3}, "model": "website.Station"}, {"pk": 113, "fields": {"cups_current": 20, "name": "sellpoint113", "company": 0, "station": 113, "cups_desired": 20}, "model": "website.SellPoint"}, {"pk": 113, "fields": {"station": 113}, "model": "website.DropOff"}, {"pk": 114, "fields": {"lon": 6.16132058711, "name": "Creux-de-Genthod", "lat": 46.263759507, "importance": 3}, "model": "website.Station"}, {"pk": 114, "fields": {"cups_current": 20, "name": "sellpoint114", "company": 0, "station": 114, "cups_desired": 20}, "model": "website.SellPoint"}, {"pk": 114, "fields": {"station": 114}, "model": "website.DropOff"}, {"pk": 115, "fields": {"lon": 6.47811907461, "name": "Croy-Romainmôtier", "lat": 46.6967038907, "importance": 3}, "model": "website.Station"}, {"pk": 115, "fields": {"cups_current": 20, "name": "sellpoint115", "company": 0, "station": 115, "cups_desired": 20}, "model": "website.SellPoint"}, {"pk": 115, "fields": {"station": 115}, "model": "website.DropOff"}, {"pk": 116, "fields": {"lon": 6.88380561207, "name": "Corcelles-Peseux", "lat": 46.9833400639, "importance": 3}, "model": "website.Station"}, {"pk": 116, "fields": {"cups_current": 20, "name": "sellpoint116", "company": 0, "station": 116, "cups_desired": 20}, "model": "website.SellPoint"}, {"pk": 116, "fields": {"station": 116}, "model": "website.DropOff"}, {"pk": 117, "fields": {"lon": 7.05537172567, "name": "Courtemaîche", "lat": 47.4558625333, "importance": 3}, "model": "website.Station"}, {"pk": 117, "fields": {"cups_current": 20, "name": "sellpoint117", "company": 0, "station": 117, "cups_desired": 20}, "model": "website.SellPoint"}, {"pk": 117, "fields": {"station": 117}, "model": "website.DropOff"}, {"pk": 118, "fields": {"lon": 7.97901545049, "name": "Dagmersellen", "lat": 47.2175519872, "importance": 3}, "model": "website.Station"}, {"pk": 118, "fields": {"cups_current": 20, "name": "sellpoint118", "company": 0, "station": 118, "cups_desired": 20}, "model": "website.SellPoint"}, {"pk": 118, "fields": {"station": 118}, "model": "website.DropOff"}, {"pk": 119, "fields": {"lon": 8.25634387912, "name": "Döttingen", "lat": 47.5752638935, "importance": 3}, "model": "website.Station"}, {"pk": 119, "fields": {"cups_current": 23, "name": "sellpoint119", "company": 0, "station": 119, "cups_desired": 23}, "model": "website.SellPoint"}, {"pk": 119, "fields": {"station": 119}, "model": "website.DropOff"}, {"pk": 120, "fields": {"lon": 8.61925589067, "name": "Dietlikon", "lat": 47.4201947418, "importance": 4}, "model": "website.Station"}, {"pk": 120, "fields": {"cups_current": 73, "name": "sellpoint120", "company": 0, "station": 120, "cups_desired": 73}, "model": "website.SellPoint"}, {"pk": 120, "fields": {"station": 120}, "model": "website.DropOff"}, {"pk": 121, "fields": {"lon": 7.60344839068, "name": "Duggingen", "lat": 47.4534348999, "importance": 3}, "model": "website.Station"}, {"pk": 121, "fields": {"cups_current": 20, "name": "sellpoint121", "company": 0, "station": 121, "cups_desired": 20}, "model": "website.SellPoint"}, {"pk": 121, "fields": {"station": 121}, "model": "website.DropOff"}, {"pk": 122, "fields": {"lon": 9.07830029592, "name": "Dietfurt", "lat": 47.3445497083, "importance": 3}, "model": "website.Station"}, {"pk": 122, "fields": {"cups_current": 20, "name": "sellpoint122", "company": 0, "station": 122, "cups_desired": 20}, "model": "website.SellPoint"}, {"pk": 122, "fields": {"station": 122}, "model": "website.DropOff"}, {"pk": 123, "fields": {"lon": 7.34209529907, "name": "Court", "lat": 47.2405870125, "importance": 3}, "model": "website.Station"}, {"pk": 123, "fields": {"cups_current": 20, "name": "sellpoint123", "company": 0, "station": 123, "cups_desired": 20}, "model": "website.SellPoint"}, {"pk": 123, "fields": {"station": 123}, "model": "website.DropOff"}, {"pk": 124, "fields": {"lon": 8.784962426, "name": "Gerra (Gambarogno)", "lat": 46.1220435171, "importance": 3}, "model": "website.Station"}, {"pk": 124, "fields": {"cups_current": 20, "name": "sellpoint124", "company": 0, "station": 124, "cups_desired": 20}, "model": "website.SellPoint"}, {"pk": 124, "fields": {"station": 124}, "model": "website.DropOff"}, {"pk": 125, "fields": {"lon": 7.39817426522, "name": "Grenchen Süd", "lat": 47.1887666151, "importance": 4}, "model": "website.Station"}, {"pk": 125, "fields": {"cups_current": 46, "name": "sellpoint125", "company": 0, "station": 125, "cups_desired": 46}, "model": "website.SellPoint"}, {"pk": 125, "fields": {"station": 125}, "model": "website.DropOff"}, {"pk": 126, "fields": {"lon": 9.00358391238, "name": "Giubiasco", "lat": 46.1738183582, "importance": 4}, "model": "website.Station"}, {"pk": 126, "fields": {"cups_current": 52, "name": "sellpoint126", "company": 0, "station": 126, "cups_desired": 52}, "model": "website.SellPoint"}, {"pk": 126, "fields": {"station": 126}, "model": "website.DropOff"}, {"pk": 127, "fields": {"lon": 8.52403632788, "name": "Glattfelden", "lat": 47.5485571928, "importance": 3}, "model": "website.Station"}, {"pk": 127, "fields": {"cups_current": 20, "name": "sellpoint127", "company": 0, "station": 127, "cups_desired": 20}, "model": "website.SellPoint"}, {"pk": 127, "fields": {"station": 127}, "model": "website.DropOff"}, {"pk": 128, "fields": {"lon": 8.86576625228, "name": "Gordola", "lat": 46.1790452957, "importance": 3}, "model": "website.Station"}, {"pk": 128, "fields": {"cups_current": 20, "name": "sellpoint128", "company": 0, "station": 128, "cups_desired": 20}, "model": "website.SellPoint"}, {"pk": 128, "fields": {"station": 128}, "model": "website.DropOff"}, {"pk": 129, "fields": {"lon": 7.99002753483, "name": "Ebligen", "lat": 46.7526220004, "importance": 3}, "model": "website.Station"}, {"pk": 129, "fields": {"cups_current": 20, "name": "sellpoint129", "company": 0, "station": 129, "cups_desired": 20}, "model": "website.SellPoint"}, {"pk": 129, "fields": {"station": 129}, "model": "website.DropOff"}, {"pk": 130, "fields": {"lon": 8.01307225263, "name": "Frick", "lat": 47.5073437467, "importance": 4}, "model": "website.Station"}, {"pk": 130, "fields": {"cups_current": 50, "name": "sellpoint130", "company": 0, "station": 130, "cups_desired": 50}, "model": "website.SellPoint"}, {"pk": 130, "fields": {"station": 130}, "model": "website.DropOff"}, {"pk": 131, "fields": {"lon": 8.18630914667, "name": "Giswil", "lat": 46.8365341912, "importance": 2}, "model": "website.Station"}, {"pk": 131, "fields": {"cups_current": 11, "name": "sellpoint131", "company": 0, "station": 131, "cups_desired": 11}, "model": "website.SellPoint"}, {"pk": 131, "fields": {"station": 131}, "model": "website.DropOff"}, {"pk": 132, "fields": {"lon": 7.98977700634, "name": "Eiken", "lat": 47.5330359504, "importance": 3}, "model": "website.Station"}, {"pk": 132, "fields": {"cups_current": 20, "name": "sellpoint132", "company": 0, "station": 132, "cups_desired": 20}, "model": "website.SellPoint"}, {"pk": 132, "fields": {"station": 132}, "model": "website.DropOff"}, {"pk": 133, "fields": {"lon": 8.86339187202, "name": "Elgg", "lat": 47.4985287524, "importance": 2}, "model": "website.Station"}, {"pk": 133, "fields": {"cups_current": 16, "name": "sellpoint133", "company": 0, "station": 133, "cups_desired": 16}, "model": "website.SellPoint"}, {"pk": 133, "fields": {"station": 133}, "model": "website.DropOff"}, {"pk": 134, "fields": {"lon": 9.01550138775, "name": "Müllheim-Wigoltingen", "lat": 47.5881673349, "importance": 3}, "model": "website.Station"}, {"pk": 134, "fields": {"cups_current": 20, "name": "sellpoint134", "company": 0, "station": 134, "cups_desired": 20}, "model": "website.SellPoint"}, {"pk": 134, "fields": {"station": 134}, "model": "website.DropOff"}, {"pk": 135, "fields": {"lon": 7.11537589102, "name": "Murten/Morat", "lat": 46.9253915414, "importance": 2}, "model": "website.Station"}, {"pk": 135, "fields": {"cups_current": 19, "name": "sellpoint135", "company": 0, "station": 135, "cups_desired": 19}, "model": "website.SellPoint"}, {"pk": 135, "fields": {"station": 135}, "model": "website.DropOff"}, {"pk": 136, "fields": {"lon": 7.77171069136, "name": "Oberbuchsiten", "lat": 47.3052431626, "importance": 3}, "model": "website.Station"}, {"pk": 136, "fields": {"cups_current": 20, "name": "sellpoint136", "company": 0, "station": 136, "cups_desired": 20}, "model": "website.SellPoint"}, {"pk": 136, "fields": {"station": 136}, "model": "website.DropOff"}, {"pk": 137, "fields": {"lon": 7.69480825358, "name": "Niederbipp", "lat": 47.2703963923, "importance": 3}, "model": "website.Station"}, {"pk": 137, "fields": {"cups_current": 20, "name": "sellpoint137", "company": 0, "station": 137, "cups_desired": 20}, "model": "website.SellPoint"}, {"pk": 137, "fields": {"station": 137}, "model": "website.DropOff"}, {"pk": 138, "fields": {"lon": 8.62491498919, "name": "Neuhausen", "lat": 47.683134176, "importance": 2}, "model": "website.Station"}, {"pk": 138, "fields": {"cups_current": 15, "name": "sellpoint138", "company": 0, "station": 138, "cups_desired": 15}, "model": "website.SellPoint"}, {"pk": 138, "fields": {"station": 138}, "model": "website.DropOff"}, {"pk": 139, "fields": {"lon": 6.80250491145, "name": "Moudon", "lat": 46.6680516436, "importance": 2}, "model": "website.Station"}, {"pk": 139, "fields": {"cups_current": 12, "name": "sellpoint139", "company": 0, "station": 139, "cups_desired": 12}, "model": "website.SellPoint"}, {"pk": 139, "fields": {"station": 139}, "model": "website.DropOff"}, {"pk": 140, "fields": {"lon": 8.22414905535, "name": "Mosen", "lat": 47.2442873199, "importance": 3}, "model": "website.Station"}, {"pk": 140, "fields": {"cups_current": 20, "name": "sellpoint140", "company": 0, "station": 140, "cups_desired": 20}, "model": "website.SellPoint"}, {"pk": 140, "fields": {"station": 140}, "model": "website.DropOff"}, {"pk": 141, "fields": {"lon": 9.0621817582, "name": "Märstetten", "lat": 47.5828184065, "importance": 3}, "model": "website.Station"}, {"pk": 141, "fields": {"cups_current": 20, "name": "sellpoint141", "company": 0, "station": 141, "cups_desired": 20}, "model": "website.SellPoint"}, {"pk": 141, "fields": {"station": 141}, "model": "website.DropOff"}, {"pk": 142, "fields": {"lon": 8.35249723256, "name": "Mellikon", "lat": 47.5684839744, "importance": 3}, "model": "website.Station"}, {"pk": 142, "fields": {"cups_current": 20, "name": "sellpoint142", "company": 0, "station": 142, "cups_desired": 20}, "model": "website.SellPoint"}, {"pk": 142, "fields": {"station": 142}, "model": "website.DropOff"}, {"pk": 143, "fields": {"lon": 9.06921723299, "name": "Märwil", "lat": 47.5331267043, "importance": 3}, "model": "website.Station"}, {"pk": 143, "fields": {"cups_current": 20, "name": "sellpoint143", "company": 0, "station": 143, "cups_desired": 20}, "model": "website.SellPoint"}, {"pk": 143, "fields": {"station": 143}, "model": "website.DropOff"}, {"pk": 144, "fields": {"lon": 8.27633859072, "name": "Mellingen Heitersberg", "lat": 47.4280718007, "importance": 3}, "model": "website.Station"}, {"pk": 144, "fields": {"cups_current": 25, "name": "sellpoint144", "company": 0, "station": 144, "cups_desired": 25}, "model": "website.SellPoint"}, {"pk": 144, "fields": {"station": 144}, "model": "website.DropOff"}, {"pk": 145, "fields": {"lon": 8.37412430654, "name": "Meggen Zentrum", "lat": 47.0450427897, "importance": 3}, "model": "website.Station"}, {"pk": 145, "fields": {"cups_current": 20, "name": "sellpoint145", "company": 0, "station": 145, "cups_desired": 20}, "model": "website.SellPoint"}, {"pk": 145, "fields": {"station": 145}, "model": "website.DropOff"}, {"pk": 146, "fields": {"lon": 7.07912247583, "name": "Martigny", "lat": 46.1058273015, "importance": 4}, "model": "website.Station"}, {"pk": 146, "fields": {"cups_current": 84, "name": "sellpoint146", "company": 0, "station": 146, "cups_desired": 84}, "model": "website.SellPoint"}, {"pk": 146, "fields": {"station": 146}, "model": "website.DropOff"}, {"pk": 147, "fields": {"lon": 9.08119403324, "name": "Mitlödi", "lat": 47.0101282312, "importance": 3}, "model": "website.Station"}, {"pk": 147, "fields": {"cups_current": 20, "name": "sellpoint147", "company": 0, "station": 147, "cups_desired": 20}, "model": "website.SellPoint"}, {"pk": 147, "fields": {"station": 147}, "model": "website.DropOff"}, {"pk": 148, "fields": {"lon": 6.9552285472, "name": "Monthey", "lat": 46.2556458933, "importance": 2}, "model": "website.Station"}, {"pk": 148, "fields": {"cups_current": 19, "name": "sellpoint148", "company": 0, "station": 148, "cups_desired": 19}, "model": "website.SellPoint"}, {"pk": 148, "fields": {"station": 148}, "model": "website.DropOff"}, {"pk": 149, "fields": {"lon": 6.0769127207, "name": "Meyrin", "lat": 46.2223320008, "importance": 3}, "model": "website.Station"}, {"pk": 149, "fields": {"cups_current": 20, "name": "sellpoint149", "company": 0, "station": 149, "cups_desired": 20}, "model": "website.SellPoint"}, {"pk": 149, "fields": {"station": 149}, "model": "website.DropOff"}, {"pk": 150, "fields": {"lon": 6.1695702204, "name": "Mies", "lat": 46.2998757136, "importance": 3}, "model": "website.Station"}, {"pk": 150, "fields": {"cups_current": 20, "name": "sellpoint150", "company": 0, "station": 150, "cups_desired": 20}, "model": "website.SellPoint"}, {"pk": 150, "fields": {"station": 150}, "model": "website.DropOff"}, {"pk": 151, "fields": {"lon": 8.29556465398, "name": "Bad Zurzach", "lat": 47.5883101087, "importance": 2}, "model": "website.Station"}, {"pk": 151, "fields": {"cups_current": 14, "name": "sellpoint151", "company": 0, "station": 151, "cups_desired": 14}, "model": "website.SellPoint"}, {"pk": 151, "fields": {"station": 151}, "model": "website.DropOff"}, {"pk": 152, "fields": {"lon": 8.3076927631, "name": "Baden", "lat": 47.476420225, "importance": 4}, "model": "website.Station"}, {"pk": 152, "fields": {"cups_current": 333, "name": "sellpoint152", "company": 0, "station": 152, "cups_desired": 333}, "model": "website.SellPoint"}, {"pk": 152, "fields": {"station": 152}, "model": "website.DropOff"}, {"pk": 153, "fields": {"lon": 7.29458712956, "name": "Biel/Bienne Bözingenfeld/Champ", "lat": 47.1583882845, "importance": 3}, "model": "website.Station"}, {"pk": 153, "fields": {"cups_current": 20, "name": "sellpoint153", "company": 0, "station": 153, "cups_desired": 20}, "model": "website.SellPoint"}, {"pk": 153, "fields": {"station": 153}, "model": "website.DropOff"}, {"pk": 154, "fields": {"lon": 8.20221962657, "name": "Beinwil am See", "lat": 47.2672189808, "importance": 3}, "model": "website.Station"}, {"pk": 154, "fields": {"cups_current": 20, "name": "sellpoint154", "company": 0, "station": 154, "cups_desired": 20}, "model": "website.SellPoint"}, {"pk": 154, "fields": {"station": 154}, "model": "website.DropOff"}, {"pk": 155, "fields": {"lon": 8.36559619501, "name": "Benzenschwil", "lat": 47.2468435811, "importance": 3}, "model": "website.Station"}, {"pk": 155, "fields": {"cups_current": 20, "name": "sellpoint155", "company": 0, "station": 155, "cups_desired": 20}, "model": "website.SellPoint"}, {"pk": 155, "fields": {"station": 155}, "model": "website.DropOff"}, {"pk": 156, "fields": {"lon": 9.21308178053, "name": "Bottighofen", "lat": 47.6407078714, "importance": 3}, "model": "website.Station"}, {"pk": 156, "fields": {"cups_current": 20, "name": "sellpoint156", "company": 0, "station": 156, "cups_desired": 20}, "model": "website.SellPoint"}, {"pk": 156, "fields": {"station": 156}, "model": "website.DropOff"}, {"pk": 157, "fields": {"lon": 9.00503477094, "name": "Balerna", "lat": 45.846756939, "importance": 3}, "model": "website.Station"}, {"pk": 157, "fields": {"cups_current": 20, "name": "sellpoint157", "company": 0, "station": 157, "cups_desired": 20}, "model": "website.SellPoint"}, {"pk": 157, "fields": {"station": 157}, "model": "website.DropOff"}, {"pk": 158, "fields": {"lon": 6.83504632593, "name": "Boudry", "lat": 46.9594442223, "importance": 3}, "model": "website.Station"}, {"pk": 158, "fields": {"cups_current": 20, "name": "sellpoint158", "company": 0, "station": 158, "cups_desired": 20}, "model": "website.SellPoint"}, {"pk": 158, "fields": {"station": 158}, "model": "website.DropOff"}, {"pk": 159, "fields": {"lon": 8.52325583517, "name": "Baar", "lat": 47.1953625991, "importance": 4}, "model": "website.Station"}, {"pk": 159, "fields": {"cups_current": 74, "name": "sellpoint159", "company": 0, "station": 159, "cups_desired": 74}, "model": "website.SellPoint"}, {"pk": 159, "fields": {"station": 159}, "model": "website.DropOff"}, {"pk": 160, "fields": {"lon": 8.21765486787, "name": "Birr", "lat": 47.4358394568, "importance": 3}, "model": "website.Station"}, {"pk": 160, "fields": {"cups_current": 20, "name": "sellpoint160", "company": 0, "station": 160, "cups_desired": 20}, "model": "website.SellPoint"}, {"pk": 160, "fields": {"station": 160}, "model": "website.DropOff"}, {"pk": 161, "fields": {"lon": 6.18783276927, "name": "Coppet", "lat": 46.3173801033, "importance": 4}, "model": "website.Station"}, {"pk": 161, "fields": {"cups_current": 62, "name": "sellpoint161", "company": 0, "station": 161, "cups_desired": 62}, "model": "website.SellPoint"}, {"pk": 161, "fields": {"station": 161}, "model": "website.DropOff"}, {"pk": 162, "fields": {"lon": 9.47862968189, "name": "Buchs SG", "lat": 47.1684089962, "importance": 4}, "model": "website.Station"}, {"pk": 162, "fields": {"cups_current": 45, "name": "sellpoint162", "company": 0, "station": 162, "cups_desired": 45}, "model": "website.SellPoint"}, {"pk": 162, "fields": {"station": 162}, "model": "website.DropOff"}, {"pk": 163, "fields": {"lon": 8.13864485952, "name": "Brünig-Hasliberg", "lat": 46.7577632267, "importance": 3}, "model": "website.Station"}, {"pk": 163, "fields": {"cups_current": 20, "name": "sellpoint163", "company": 0, "station": 163, "cups_desired": 20}, "model": "website.SellPoint"}, {"pk": 163, "fields": {"station": 163}, "model": "website.DropOff"}, {"pk": 164, "fields": {"lon": 8.02036390102, "name": "Brienz West", "lat": 46.7573112501, "importance": 3}, "model": "website.Station"}, {"pk": 164, "fields": {"cups_current": 20, "name": "sellpoint164", "company": 0, "station": 164, "cups_desired": 20}, "model": "website.SellPoint"}, {"pk": 164, "fields": {"station": 164}, "model": "website.DropOff"}, {"pk": 165, "fields": {"lon": 6.94875976335, "name": "Collombey", "lat": 46.2711806973, "importance": 3}, "model": "website.Station"}, {"pk": 165, "fields": {"cups_current": 20, "name": "sellpoint165", "company": 0, "station": 165, "cups_desired": 20}, "model": "website.SellPoint"}, {"pk": 165, "fields": {"station": 165}, "model": "website.DropOff"}, {"pk": 166, "fields": {"lon": 6.84886986434, "name": "Colombier", "lat": 46.9676392173, "importance": 3}, "model": "website.Station"}, {"pk": 166, "fields": {"cups_current": 20, "name": "sellpoint166", "company": 0, "station": 166, "cups_desired": 20}, "model": "website.SellPoint"}, {"pk": 166, "fields": {"station": 166}, "model": "website.DropOff"}, {"pk": 167, "fields": {"lon": 6.55181947041, "name": "Bussigny", "lat": 46.5475795245, "importance": 3}, "model": "website.Station"}, {"pk": 167, "fields": {"cups_current": 27, "name": "sellpoint167", "company": 0, "station": 167, "cups_desired": 27}, "model": "website.SellPoint"}, {"pk": 167, "fields": {"station": 167}, "model": "website.DropOff"}, {"pk": 168, "fields": {"lon": 9.03144057629, "name": "Chiasso", "lat": 45.8321788009, "importance": 4}, "model": "website.Station"}, {"pk": 168, "fields": {"cups_current": 47, "name": "sellpoint168", "company": 0, "station": 168, "cups_desired": 47}, "model": "website.SellPoint"}, {"pk": 168, "fields": {"station": 168}, "model": "website.DropOff"}, {"pk": 169, "fields": {"lon": 8.35663714452, "name": "Buchrain", "lat": 47.0936431378, "importance": 2}, "model": "website.Station"}, {"pk": 169, "fields": {"cups_current": 12, "name": "sellpoint169", "company": 0, "station": 169, "cups_desired": 12}, "model": "website.SellPoint"}, {"pk": 169, "fields": {"station": 169}, "model": "website.DropOff"}, {"pk": 170, "fields": {"lon": 7.84778618088, "name": "Buckten", "lat": 47.4089834328, "importance": 3}, "model": "website.Station"}, {"pk": 170, "fields": {"cups_current": 20, "name": "sellpoint170", "company": 0, "station": 170, "cups_desired": 20}, "model": "website.SellPoint"}, {"pk": 170, "fields": {"station": 170}, "model": "website.DropOff"}, {"pk": 171, "fields": {"lon": 9.16318719461, "name": "Kreuzlingen Bernrain", "lat": 47.6421167081, "importance": 3}, "model": "website.Station"}, {"pk": 171, "fields": {"cups_current": 20, "name": "sellpoint171", "company": 0, "station": 171, "cups_desired": 20}, "model": "website.SellPoint"}, {"pk": 171, "fields": {"station": 171}, "model": "website.DropOff"}, {"pk": 172, "fields": {"lon": 6.82601877705, "name": "La Chaux-de-Fonds", "lat": 47.0986436492, "importance": 4}, "model": "website.Station"}, {"pk": 172, "fields": {"cups_current": 68, "name": "sellpoint172", "company": 0, "station": 172, "cups_desired": 68}, "model": "website.SellPoint"}, {"pk": 172, "fields": {"station": 172}, "model": "website.DropOff"}, {"pk": 173, "fields": {"lon": 8.4334940573, "name": "Küssnacht am Rigi", "lat": 47.0835940036, "importance": 3}, "model": "website.Station"}, {"pk": 173, "fields": {"cups_current": 23, "name": "sellpoint173", "company": 0, "station": 173, "cups_desired": 23}, "model": "website.SellPoint"}, {"pk": 173, "fields": {"station": 173}, "model": "website.DropOff"}, {"pk": 174, "fields": {"lon": 6.67832554978, "name": "La Conversion", "lat": 46.513080116, "importance": 3}, "model": "website.Station"}, {"pk": 174, "fields": {"cups_current": 20, "name": "sellpoint174", "company": 0, "station": 174, "cups_desired": 20}, "model": "website.SellPoint"}, {"pk": 174, "fields": {"station": 174}, "model": "website.DropOff"}, {"pk": 175, "fields": {"lon": 8.30236875, "name": "Kriens Mattenhof", "lat": 47.0266153509, "importance": 2}, "model": "website.Station"}, {"pk": 175, "fields": {"cups_current": 15, "name": "sellpoint175", "company": 0, "station": 175, "cups_desired": 15}, "model": "website.SellPoint"}, {"pk": 175, "fields": {"station": 175}, "model": "website.DropOff"}, {"pk": 176, "fields": {"lon": 8.24013823513, "name": "Koblenz Dorf", "lat": 47.6093835703, "importance": 3}, "model": "website.Station"}, {"pk": 176, "fields": {"cups_current": 20, "name": "sellpoint176", "company": 0, "station": 176, "cups_desired": 20}, "model": "website.SellPoint"}, {"pk": 176, "fields": {"station": 176}, "model": "website.DropOff"}, {"pk": 177, "fields": {"lon": 8.58061588761, "name": "Küsnacht ZH", "lat": 47.3191528026, "importance": 4}, "model": "website.Station"}, {"pk": 177, "fields": {"cups_current": 50, "name": "sellpoint177", "company": 0, "station": 177, "cups_desired": 50}, "model": "website.SellPoint"}, {"pk": 177, "fields": {"station": 177}, "model": "website.DropOff"}, {"pk": 178, "fields": {"lon": 9.16906514323, "name": "Kreuzlingen", "lat": 47.6525540444, "importance": 4}, "model": "website.Station"}, {"pk": 178, "fields": {"cups_current": 87, "name": "sellpoint178", "company": 0, "station": 178, "cups_desired": 87}, "model": "website.SellPoint"}, {"pk": 178, "fields": {"station": 178}, "model": "website.DropOff"}, {"pk": 179, "fields": {"lon": 6.51736524915, "name": "La Sarraz", "lat": 46.6587767613, "importance": 3}, "model": "website.Station"}, {"pk": 179, "fields": {"cups_current": 20, "name": "sellpoint179", "company": 0, "station": 179, "cups_desired": 20}, "model": "website.SellPoint"}, {"pk": 179, "fields": {"station": 179}, "model": "website.DropOff"}, {"pk": 180, "fields": {"lon": 8.22702315842, "name": "Koblenz", "lat": 47.6003354815, "importance": 3}, "model": "website.Station"}, {"pk": 180, "fields": {"cups_current": 29, "name": "sellpoint180", "company": 0, "station": 180, "cups_desired": 29}, "model": "website.SellPoint"}, {"pk": 180, "fields": {"station": 180}, "model": "website.DropOff"}, {"pk": 181, "fields": {"lon": 8.66229616245, "name": "Langwiesen", "lat": 47.6834480371, "importance": 3}, "model": "website.Station"}, {"pk": 181, "fields": {"cups_current": 20, "name": "sellpoint181", "company": 0, "station": 181, "cups_desired": 20}, "model": "website.SellPoint"}, {"pk": 181, "fields": {"station": 181}, "model": "website.DropOff"}, {"pk": 182, "fields": {"lon": 7.73135468775, "name": "Liestal", "lat": 47.4844551308, "importance": 4}, "model": "website.Station"}, {"pk": 182, "fields": {"cups_current": 163, "name": "sellpoint182", "company": 0, "station": 182, "cups_desired": 163}, "model": "website.SellPoint"}, {"pk": 182, "fields": {"station": 182}, "model": "website.DropOff"}, {"pk": 183, "fields": {"lon": 9.00248305864, "name": "Linthal Braunwaldbahn", "lat": 46.928393834, "importance": 3}, "model": "website.Station"}, {"pk": 183, "fields": {"cups_current": 20, "name": "sellpoint183", "company": 0, "station": 183, "cups_desired": 20}, "model": "website.SellPoint"}, {"pk": 183, "fields": {"station": 183}, "model": "website.DropOff"}, {"pk": 184, "fields": {"lon": 6.85953018827, "name": "La Tour-de-Peilz", "lat": 46.4554432937, "importance": 2}, "model": "website.Station"}, {"pk": 184, "fields": {"cups_current": 19, "name": "sellpoint184", "company": 0, "station": 184, "cups_desired": 19}, "model": "website.SellPoint"}, {"pk": 184, "fields": {"station": 184}, "model": "website.DropOff"}, {"pk": 185, "fields": {"lon": 9.07067425759, "name": "Lütisburg", "lat": 47.3838273619, "importance": 3}, "model": "website.Station"}, {"pk": 185, "fields": {"cups_current": 20, "name": "sellpoint185", "company": 0, "station": 185, "cups_desired": 20}, "model": "website.SellPoint"}, {"pk": 185, "fields": {"station": 185}, "model": "website.DropOff"}, {"pk": 186, "fields": {"lon": 8.17037888645, "name": "Lenzburg", "lat": 47.3911934191, "importance": 4}, "model": "website.Station"}, {"pk": 186, "fields": {"cups_current": 223, "name": "sellpoint186", "company": 0, "station": 186, "cups_desired": 223}, "model": "website.SellPoint"}, {"pk": 186, "fields": {"station": 186}, "model": "website.DropOff"}, {"pk": 187, "fields": {"lon": 8.99777825107, "name": "Linthal", "lat": 46.9255699583, "importance": 3}, "model": "website.Station"}, {"pk": 187, "fields": {"cups_current": 20, "name": "sellpoint187", "company": 0, "station": 187, "cups_desired": 20}, "model": "website.SellPoint"}, {"pk": 187, "fields": {"station": 187}, "model": "website.DropOff"}, {"pk": 188, "fields": {"lon": 8.31017092011, "name": "Luzern", "lat": 47.0501697679, "importance": 5}, "model": "website.Station"}, {"pk": 188, "fields": {"cups_current": 847, "name": "sellpoint188", "company": 0, "station": 188, "cups_desired": 847}, "model": "website.SellPoint"}, {"pk": 188, "fields": {"station": 188}, "model": "website.DropOff"}, {"pk": 189, "fields": {"lon": 7.75982160092, "name": "Lausen", "lat": 47.470196213, "importance": 2}, "model": "website.Station"}, {"pk": 189, "fields": {"cups_current": 14, "name": "sellpoint189", "company": 0, "station": 189, "cups_desired": 14}, "model": "website.SellPoint"}, {"pk": 189, "fields": {"station": 189}, "model": "website.DropOff"}, {"pk": 190, "fields": {"lon": 8.16355874167, "name": "Lungern", "lat": 46.7863494029, "importance": 3}, "model": "website.Station"}, {"pk": 190, "fields": {"cups_current": 20, "name": "sellpoint190", "company": 0, "station": 190, "cups_desired": 20}, "model": "website.SellPoint"}, {"pk": 190, "fields": {"station": 190}, "model": "website.DropOff"}, {"pk": 191, "fields": {"lon": 8.76037093131, "name": "Oberwinterthur", "lat": 47.5079184546, "importance": 4}, "model": "website.Station"}, {"pk": 191, "fields": {"cups_current": 50, "name": "sellpoint191", "company": 0, "station": 191, "cups_desired": 50}, "model": "website.SellPoint"}, {"pk": 191, "fields": {"station": 191}, "model": "website.DropOff"}, {"pk": 192, "fields": {"lon": 7.8977062126, "name": "Olten Hammer", "lat": 47.3485517008, "importance": 3}, "model": "website.Station"}, {"pk": 192, "fields": {"cups_current": 20, "name": "sellpoint192", "company": 0, "station": 192, "cups_desired": 20}, "model": "website.SellPoint"}, {"pk": 192, "fields": {"station": 192}, "model": "website.DropOff"}, {"pk": 193, "fields": {"lon": 9.57136707107, "name": "Oberriet", "lat": 47.3234789515, "importance": 3}, "model": "website.Station"}, {"pk": 193, "fields": {"cups_current": 20, "name": "sellpoint193", "company": 0, "station": 193, "cups_desired": 20}, "model": "website.SellPoint"}, {"pk": 193, "fields": {"station": 193}, "model": "website.DropOff"}, {"pk": 194, "fields": {"lon": 8.40476673935, "name": "Oberrüti", "lat": 47.1659234421, "importance": 3}, "model": "website.Station"}, {"pk": 194, "fields": {"cups_current": 20, "name": "sellpoint194", "company": 0, "station": 194, "cups_desired": 20}, "model": "website.SellPoint"}, {"pk": 194, "fields": {"station": 194}, "model": "website.DropOff"}, {"pk": 195, "fields": {"lon": 8.40209787525, "name": "Otelfingen Golfpark", "lat": 47.455812722, "importance": 3}, "model": "website.Station"}, {"pk": 195, "fields": {"cups_current": 20, "name": "sellpoint195", "company": 0, "station": 195, "cups_desired": 20}, "model": "website.SellPoint"}, {"pk": 195, "fields": {"station": 195}, "model": "website.DropOff"}, {"pk": 196, "fields": {"lon": 8.37365327646, "name": "Rümikon AG", "lat": 47.5653831658, "importance": 3}, "model": "website.Station"}, {"pk": 196, "fields": {"cups_current": 20, "name": "sellpoint196", "company": 0, "station": 196, "cups_desired": 20}, "model": "website.SellPoint"}, {"pk": 196, "fields": {"station": 196}, "model": "website.DropOff"}, {"pk": 197, "fields": {"lon": 8.85420315671, "name": "Saland", "lat": 47.3942126094, "importance": 3}, "model": "website.Station"}, {"pk": 197, "fields": {"cups_current": 20, "name": "sellpoint197", "company": 0, "station": 197, "cups_desired": 20}, "model": "website.SellPoint"}, {"pk": 197, "fields": {"station": 197}, "model": "website.DropOff"}, {"pk": 198, "fields": {"lon": 8.79630774826, "name": "Rikon", "lat": 47.4450032571, "importance": 3}, "model": "website.Station"}, {"pk": 198, "fields": {"cups_current": 20, "name": "sellpoint198", "company": 0, "station": 198, "cups_desired": 20}, "model": "website.SellPoint"}, {"pk": 198, "fields": {"station": 198}, "model": "website.DropOff"}, {"pk": 199, "fields": {"lon": 7.81490475887, "name": "Roggwil-Wynau", "lat": 47.2516286412, "importance": 3}, "model": "website.Station"}, {"pk": 199, "fields": {"cups_current": 20, "name": "sellpoint199", "company": 0, "station": 199, "cups_desired": 20}, "model": "website.SellPoint"}, {"pk": 199, "fields": {"station": 199}, "model": "website.DropOff"}, {"pk": 200, "fields": {"lon": 8.62340719058, "name": "Dübendorf", "lat": 47.4000750283, "importance": 4}, "model": "website.Station"}, {"pk": 200, "fields": {"cups_current": 86, "name": "sellpoint200", "company": 0, "station": 200, "cups_desired": 86}, "model": "website.SellPoint"}, {"pk": 200, "fields": {"station": 200}, "model": "website.DropOff"}, {"pk": 201, "fields": {"lon": 8.5870549795, "name": "Embrach-Rorbas", "lat": 47.5205878296, "importance": 3}, "model": "website.Station"}, {"pk": 201, "fields": {"cups_current": 24, "name": "sellpoint201", "company": 0, "station": 201, "cups_desired": 24}, "model": "website.SellPoint"}, {"pk": 201, "fields": {"station": 201}, "model": "website.DropOff"}, {"pk": 202, "fields": {"lon": 8.75227980348, "name": "Diessenhofen", "lat": 47.6854695764, "importance": 2}, "model": "website.Station"}, {"pk": 202, "fields": {"cups_current": 11, "name": "sellpoint202", "company": 0, "station": 202, "cups_desired": 11}, "model": "website.SellPoint"}, {"pk": 202, "fields": {"station": 202}, "model": "website.DropOff"}, {"pk": 203, "fields": {"lon": 6.8247755489, "name": "Corseaux-Cornalles", "lat": 46.4704453244, "importance": 3}, "model": "website.Station"}, {"pk": 203, "fields": {"cups_current": 20, "name": "sellpoint203", "company": 0, "station": 203, "cups_desired": 20}, "model": "website.SellPoint"}, {"pk": 203, "fields": {"station": 203}, "model": "website.DropOff"}, {"pk": 204, "fields": {"lon": 7.29115599382, "name": "Courfaivre", "lat": 47.3350738097, "importance": 3}, "model": "website.Station"}, {"pk": 204, "fields": {"cups_current": 20, "name": "sellpoint204", "company": 0, "station": 204, "cups_desired": 20}, "model": "website.SellPoint"}, {"pk": 204, "fields": {"station": 204}, "model": "website.DropOff"}, {"pk": 205, "fields": {"lon": 7.3179306259, "name": "Courtételle", "lat": 47.3428223281, "importance": 3}, "model": "website.Station"}, {"pk": 205, "fields": {"cups_current": 20, "name": "sellpoint205", "company": 0, "station": 205, "cups_desired": 20}, "model": "website.SellPoint"}, {"pk": 205, "fields": {"station": 205}, "model": "website.DropOff"}, {"pk": 206, "fields": {"lon": 7.05763565777, "name": "Courchavon", "lat": 47.4397614989, "importance": 3}, "model": "website.Station"}, {"pk": 206, "fields": {"cups_current": 20, "name": "sellpoint206", "company": 0, "station": 206, "cups_desired": 20}, "model": "website.SellPoint"}, {"pk": 206, "fields": {"station": 206}, "model": "website.DropOff"}, {"pk": 207, "fields": {"lon": 6.55242099774, "name": "Eclépens", "lat": 46.6571840947, "importance": 3}, "model": "website.Station"}, {"pk": 207, "fields": {"cups_current": 20, "name": "sellpoint207", "company": 0, "station": 207, "cups_desired": 20}, "model": "website.SellPoint"}, {"pk": 207, "fields": {"station": 207}, "model": "website.DropOff"}, {"pk": 208, "fields": {"lon": 7.79894973749, "name": "Egerkingen", "lat": 47.3148575546, "importance": 2}, "model": "website.Station"}, {"pk": 208, "fields": {"cups_current": 11, "name": "sellpoint208", "company": 0, "station": 208, "cups_desired": 11}, "model": "website.SellPoint"}, {"pk": 208, "fields": {"station": 208}, "model": "website.DropOff"}, {"pk": 209, "fields": {"lon": 8.51653513851, "name": "Eglisau", "lat": 47.5723728054, "importance": 2}, "model": "website.Station"}, {"pk": 209, "fields": {"cups_current": 15, "name": "sellpoint209", "company": 0, "station": 209, "cups_desired": 15}, "model": "website.SellPoint"}, {"pk": 209, "fields": {"station": 209}, "model": "website.DropOff"}, {"pk": 210, "fields": {"lon": 9.03090912842, "name": "Bronschhofen AMP", "lat": 47.481268659, "importance": 3}, "model": "website.Station"}, {"pk": 210, "fields": {"cups_current": 20, "name": "sellpoint210", "company": 0, "station": 210, "cups_desired": 20}, "model": "website.SellPoint"}, {"pk": 210, "fields": {"station": 210}, "model": "website.DropOff"}, {"pk": 211, "fields": {"lon": 6.77854229136, "name": "Chexbres-Village", "lat": 46.4810524899, "importance": 3}, "model": "website.Station"}, {"pk": 211, "fields": {"cups_current": 20, "name": "sellpoint211", "company": 0, "station": 211, "cups_desired": 20}, "model": "website.SellPoint"}, {"pk": 211, "fields": {"station": 211}, "model": "website.DropOff"}, {"pk": 212, "fields": {"lon": 6.47473141459, "name": "Bretonnières", "lat": 46.7150454119, "importance": 3}, "model": "website.Station"}, {"pk": 212, "fields": {"cups_current": 20, "name": "sellpoint212", "company": 0, "station": 212, "cups_desired": 20}, "model": "website.SellPoint"}, {"pk": 212, "fields": {"station": 212}, "model": "website.DropOff"}, {"pk": 213, "fields": {"lon": 6.14733924476, "name": "Chambésy", "lat": 46.2423769792, "importance": 3}, "model": "website.Station"}, {"pk": 213, "fields": {"cups_current": 20, "name": "sellpoint213", "company": 0, "station": 213, "cups_desired": 20}, "model": "website.SellPoint"}, {"pk": 213, "fields": {"station": 213}, "model": "website.DropOff"}, {"pk": 214, "fields": {"lon": 8.94168850732, "name": "Cadenazzo", "lat": 46.1526250436, "importance": 2}, "model": "website.Station"}, {"pk": 214, "fields": {"cups_current": 17, "name": "sellpoint214", "company": 0, "station": 214, "cups_desired": 17}, "model": "website.SellPoint"}, {"pk": 214, "fields": {"station": 214}, "model": "website.DropOff"}, {"pk": 215, "fields": {"lon": 8.84238332851, "name": "Blumenau", "lat": 47.2236693254, "importance": 3}, "model": "website.Station"}, {"pk": 215, "fields": {"cups_current": 20, "name": "sellpoint215", "company": 0, "station": 215, "cups_desired": 20}, "model": "website.SellPoint"}, {"pk": 215, "fields": {"station": 215}, "model": "website.DropOff"}, {"pk": 216, "fields": {"lon": 8.53618858988, "name": "Bülach", "lat": 47.5239413008, "importance": 4}, "model": "website.Station"}, {"pk": 216, "fields": {"cups_current": 172, "name": "sellpoint216", "company": 0, "station": 216, "cups_desired": 172}, "model": "website.SellPoint"}, {"pk": 216, "fields": {"station": 216}, "model": "website.DropOff"}, {"pk": 217, "fields": {"lon": 8.61004816648, "name": "Brunnen", "lat": 46.9991749288, "importance": 3}, "model": "website.Station"}, {"pk": 217, "fields": {"cups_current": 26, "name": "sellpoint217", "company": 0, "station": 217, "cups_desired": 26}, "model": "website.SellPoint"}, {"pk": 217, "fields": {"station": 217}, "model": "website.DropOff"}, {"pk": 218, "fields": {"lon": 8.90655905474, "name": "Bodio", "lat": 46.3802576814, "importance": 3}, "model": "website.Station"}, {"pk": 218, "fields": {"cups_current": 20, "name": "sellpoint218", "company": 0, "station": 218, "cups_desired": 20}, "model": "website.SellPoint"}, {"pk": 218, "fields": {"station": 218}, "model": "website.DropOff"}, {"pk": 219, "fields": {"lon": 7.98809158467, "name": "Brig", "lat": 46.3194210071, "importance": 4}, "model": "website.Station"}, {"pk": 219, "fields": {"cups_current": 159, "name": "sellpoint219", "company": 0, "station": 219, "cups_desired": 159}, "model": "website.SellPoint"}, {"pk": 219, "fields": {"station": 219}, "model": "website.DropOff"}, {"pk": 220, "fields": {"lon": 9.02200129854, "name": "Berlingen", "lat": 47.6732101292, "importance": 3}, "model": "website.Station"}, {"pk": 220, "fields": {"cups_current": 20, "name": "sellpoint220", "company": 0, "station": 220, "cups_desired": 20}, "model": "website.SellPoint"}, {"pk": 220, "fields": {"station": 220}, "model": "website.DropOff"}, {"pk": 221, "fields": {"lon": 8.87821095251, "name": "Bauma", "lat": 47.3688358029, "importance": 3}, "model": "website.Station"}, {"pk": 221, "fields": {"cups_current": 20, "name": "sellpoint221", "company": 0, "station": 221, "cups_desired": 20}, "model": "website.SellPoint"}, {"pk": 221, "fields": {"station": 221}, "model": "website.DropOff"}, {"pk": 222, "fields": {"lon": 7.24290845288, "name": "Biel/Bienne", "lat": 47.1328920532, "importance": 4}, "model": "website.Station"}, {"pk": 222, "fields": {"cups_current": 428, "name": "sellpoint222", "company": 0, "station": 222, "cups_desired": 428}, "model": "website.SellPoint"}, {"pk": 222, "fields": {"station": 222}, "model": "website.DropOff"}, {"pk": 223, "fields": {"lon": 8.54949116322, "name": "Arth-Goldau", "lat": 47.04915622, "importance": 4}, "model": "website.Station"}, {"pk": 223, "fields": {"cups_current": 126, "name": "sellpoint223", "company": 0, "station": 223, "cups_desired": 126}, "model": "website.SellPoint"}, {"pk": 223, "fields": {"station": 223}, "model": "website.DropOff"}, {"pk": 224, "fields": {"lon": 7.58955146721, "name": "Basel SBB", "lat": 47.5474041527, "importance": 5}, "model": "website.Station"}, {"pk": 224, "fields": {"cups_current": 1014, "name": "sellpoint224", "company": 0, "station": 224, "cups_desired": 1014}, "model": "website.SellPoint"}, {"pk": 224, "fields": {"station": 224}, "model": "website.DropOff"}, {"pk": 225, "fields": {"lon": 7.43911900576, "name": "Bern", "lat": 46.948824497, "importance": 5}, "model": "website.Station"}, {"pk": 225, "fields": {"cups_current": 1807, "name": "sellpoint225", "company": 0, "station": 225, "cups_desired": 1807}, "model": "website.SellPoint"}, {"pk": 225, "fields": {"station": 225}, "model": "website.DropOff"}, {"pk": 226, "fields": {"lon": 8.67797953564, "name": "Andelfingen", "lat": 47.5937589886, "importance": 3}, "model": "website.Station"}, {"pk": 226, "fields": {"cups_current": 21, "name": "sellpoint226", "company": 0, "station": 226, "cups_desired": 21}, "model": "website.SellPoint"}, {"pk": 226, "fields": {"station": 226}, "model": "website.DropOff"}, {"pk": 227, "fields": {"lon": 9.50521579767, "name": "Bad Ragaz", "lat": 47.0103066077, "importance": 3}, "model": "website.Station"}, {"pk": 227, "fields": {"cups_current": 22, "name": "sellpoint227", "company": 0, "station": 227, "cups_desired": 22}, "model": "website.SellPoint"}, {"pk": 227, "fields": {"station": 227}, "model": "website.DropOff"}, {"pk": 228, "fields": {"lon": 9.06904195327, "name": "Bazenheid", "lat": 47.4101281088, "importance": 3}, "model": "website.Station"}, {"pk": 228, "fields": {"cups_current": 20, "name": "sellpoint228", "company": 0, "station": 228, "cups_desired": 20}, "model": "website.SellPoint"}, {"pk": 228, "fields": {"station": 228}, "model": "website.DropOff"}, {"pk": 229, "fields": {"lon": 9.00863107374, "name": "Benken", "lat": 47.2044563538, "importance": 3}, "model": "website.Station"}, {"pk": 229, "fields": {"cups_current": 20, "name": "sellpoint229", "company": 0, "station": 229, "cups_desired": 20}, "model": "website.SellPoint"}, {"pk": 229, "fields": {"station": 229}, "model": "website.DropOff"}, {"pk": 230, "fields": {"lon": 8.45736538581, "name": "Mettmenstetten", "lat": 47.244071939, "importance": 2}, "model": "website.Station"}, {"pk": 230, "fields": {"cups_current": 19, "name": "sellpoint230", "company": 0, "station": 230, "cups_desired": 19}, "model": "website.SellPoint"}, {"pk": 230, "fields": {"station": 230}, "model": "website.DropOff"}, {"pk": 231, "fields": {"lon": 8.40903921336, "name": "Merlischachen", "lat": 47.0676559849, "importance": 3}, "model": "website.Station"}, {"pk": 231, "fields": {"cups_current": 20, "name": "sellpoint231", "company": 0, "station": 231, "cups_desired": 20}, "model": "website.SellPoint"}, {"pk": 231, "fields": {"station": 231}, "model": "website.DropOff"}, {"pk": 232, "fields": {"lon": 7.61758557051, "name": "Münchenstein", "lat": 47.5133857839, "importance": 3}, "model": "website.Station"}, {"pk": 232, "fields": {"cups_current": 20, "name": "sellpoint232", "company": 0, "station": 232, "cups_desired": 20}, "model": "website.SellPoint"}, {"pk": 232, "fields": {"station": 232}, "model": "website.DropOff"}, {"pk": 233, "fields": {"lon": 8.18423402153, "name": "Meiringen", "lat": 46.7273296622, "importance": 3}, "model": "website.Station"}, {"pk": 233, "fields": {"cups_current": 20, "name": "sellpoint233", "company": 0, "station": 233, "cups_desired": 20}, "model": "website.SellPoint"}, {"pk": 233, "fields": {"station": 233}, "model": "website.DropOff"}, {"pk": 234, "fields": {"lon": 9.33708157978, "name": "Muolen", "lat": 47.5176199644, "importance": 3}, "model": "website.Station"}, {"pk": 234, "fields": {"cups_current": 20, "name": "sellpoint234", "company": 0, "station": 234, "cups_desired": 20}, "model": "website.SellPoint"}, {"pk": 234, "fields": {"station": 234}, "model": "website.DropOff"}, {"pk": 235, "fields": {"lon": 7.64787914262, "name": "Muttenz", "lat": 47.5335803903, "importance": 4}, "model": "website.Station"}, {"pk": 235, "fields": {"cups_current": 47, "name": "sellpoint235", "company": 0, "station": 235, "cups_desired": 47}, "model": "website.SellPoint"}, {"pk": 235, "fields": {"station": 235}, "model": "website.DropOff"}, {"pk": 236, "fields": {"lon": 6.84214373406, "name": "Lucens", "lat": 46.7077668295, "importance": 3}, "model": "website.Station"}, {"pk": 236, "fields": {"cups_current": 20, "name": "sellpoint236", "company": 0, "station": 236, "cups_desired": 20}, "model": "website.SellPoint"}, {"pk": 236, "fields": {"station": 236}, "model": "website.DropOff"}, {"pk": 237, "fields": {"lon": 7.09632979027, "name": "Matran", "lat": 46.7889298851, "importance": 3}, "model": "website.Station"}, {"pk": 237, "fields": {"cups_current": 20, "name": "sellpoint237", "company": 0, "station": 237, "cups_desired": 20}, "model": "website.SellPoint"}, {"pk": 237, "fields": {"station": 237}, "model": "website.DropOff"}, {"pk": 238, "fields": {"lon": 7.90961301385, "name": "Mumpf", "lat": 47.5476175889, "importance": 3}, "model": "website.Station"}, {"pk": 238, "fields": {"cups_current": 20, "name": "sellpoint238", "company": 0, "station": 238, "cups_desired": 20}, "model": "website.SellPoint"}, {"pk": 238, "fields": {"station": 238}, "model": "website.DropOff"}, {"pk": 239, "fields": {"lon": 7.30629081519, "name": "Lyss", "lat": 47.0763151407, "importance": 4}, "model": "website.Station"}, {"pk": 239, "fields": {"cups_current": 103, "name": "sellpoint239", "company": 0, "station": 239, "cups_desired": 103}, "model": "website.SellPoint"}, {"pk": 239, "fields": {"station": 239}, "model": "website.DropOff"}, {"pk": 240, "fields": {"lon": 9.2709268739, "name": "Oberaach", "lat": 47.5532223119, "importance": 3}, "model": "website.Station"}, {"pk": 240, "fields": {"cups_current": 20, "name": "sellpoint240", "company": 0, "station": 240, "cups_desired": 20}, "model": "website.SellPoint"}, {"pk": 240, "fields": {"station": 240}, "model": "website.DropOff"}, {"pk": 241, "fields": {"lon": 8.38104986019, "name": "Niederweningen Dorf", "lat": 47.5059060903, "importance": 3}, "model": "website.Station"}, {"pk": 241, "fields": {"cups_current": 20, "name": "sellpoint241", "company": 0, "station": 241, "cups_desired": 20}, "model": "website.SellPoint"}, {"pk": 241, "fields": {"station": 241}, "model": "website.DropOff"}, {"pk": 242, "fields": {"lon": 9.05925879887, "name": "Nidfurn-Haslen", "lat": 46.9858964537, "importance": 3}, "model": "website.Station"}, {"pk": 242, "fields": {"cups_current": 20, "name": "sellpoint242", "company": 0, "station": 242, "cups_desired": 20}, "model": "website.SellPoint"}, {"pk": 242, "fields": {"station": 242}, "model": "website.DropOff"}, {"pk": 243, "fields": {"lon": 8.50329612568, "name": "Niederglatt", "lat": 47.4874689477, "importance": 2}, "model": "website.Station"}, {"pk": 243, "fields": {"cups_current": 11, "name": "sellpoint243", "company": 0, "station": 243, "cups_desired": 11}, "model": "website.SellPoint"}, {"pk": 243, "fields": {"station": 243}, "model": "website.DropOff"}, {"pk": 244, "fields": {"lon": 7.70985469445, "name": "Oensingen", "lat": 47.2850232125, "importance": 4}, "model": "website.Station"}, {"pk": 244, "fields": {"cups_current": 50, "name": "sellpoint244", "company": 0, "station": 244, "cups_desired": 50}, "model": "website.SellPoint"}, {"pk": 244, "fields": {"station": 244}, "model": "website.DropOff"}, {"pk": 245, "fields": {"lon": 8.11422262548, "name": "Oberkirch", "lat": 47.1552315719, "importance": 3}, "model": "website.Station"}, {"pk": 245, "fields": {"cups_current": 20, "name": "sellpoint245", "company": 0, "station": 245, "cups_desired": 20}, "model": "website.SellPoint"}, {"pk": 245, "fields": {"station": 245}, "model": "website.DropOff"}, {"pk": 246, "fields": {"lon": 8.57070137795, "name": "Kloten Balsberg", "lat": 47.4422864693, "importance": 2}, "model": "website.Station"}, {"pk": 246, "fields": {"cups_current": 17, "name": "sellpoint246", "company": 0, "station": 246, "cups_desired": 17}, "model": "website.SellPoint"}, {"pk": 246, "fields": {"station": 246}, "model": "website.DropOff"}, {"pk": 247, "fields": {"lon": 8.01907059825, "name": "Kölliken Oberdorf", "lat": 47.3246738705, "importance": 3}, "model": "website.Station"}, {"pk": 247, "fields": {"cups_current": 20, "name": "sellpoint247", "company": 0, "station": 247, "cups_desired": 20}, "model": "website.SellPoint"}, {"pk": 247, "fields": {"station": 247}, "model": "website.DropOff"}, {"pk": 248, "fields": {"lon": 8.29821242385, "name": "Hochdorf Schönau", "lat": 47.1646547839, "importance": 3}, "model": "website.Station"}, {"pk": 248, "fields": {"cups_current": 20, "name": "sellpoint248", "company": 0, "station": 248, "cups_desired": 20}, "model": "website.SellPoint"}, {"pk": 248, "fields": {"station": 248}, "model": "website.DropOff"}, {"pk": 249, "fields": {"lon": 9.18196081638, "name": "Kreuzlingen Hafen", "lat": 47.6491676497, "importance": 2}, "model": "website.Station"}, {"pk": 249, "fields": {"cups_current": 15, "name": "sellpoint249", "company": 0, "station": 249, "cups_desired": 15}, "model": "website.SellPoint"}, {"pk": 249, "fields": {"station": 249}, "model": "website.DropOff"}, {"pk": 250, "fields": {"lon": 8.58980260632, "name": "Horgen Oberdorf", "lat": 47.2587470381, "importance": 2}, "model": "website.Station"}, {"pk": 250, "fields": {"cups_current": 18, "name": "sellpoint250", "company": 0, "station": 250, "cups_desired": 18}, "model": "website.SellPoint"}, {"pk": 250, "fields": {"station": 250}, "model": "website.DropOff"}, {"pk": 251, "fields": {"lon": 8.31016575309, "name": "Hergiswil", "lat": 46.9826127199, "importance": 3}, "model": "website.Station"}, {"pk": 251, "fields": {"cups_current": 27, "name": "sellpoint251", "company": 0, "station": 251, "cups_desired": 27}, "model": "website.SellPoint"}, {"pk": 251, "fields": {"station": 251}, "model": "website.DropOff"}, {"pk": 252, "fields": {"lon": 9.55402859224, "name": "Landquart", "lat": 46.9674389764, "importance": 4}, "model": "website.Station"}, {"pk": 252, "fields": {"cups_current": 124, "name": "sellpoint252", "company": 0, "station": 252, "cups_desired": 124}, "model": "website.SellPoint"}, {"pk": 252, "fields": {"station": 252}, "model": "website.DropOff"}, {"pk": 253, "fields": {"lon": 8.57327389271, "name": "Jestetten", "lat": 47.6544006039, "importance": 3}, "model": "website.Station"}, {"pk": 253, "fields": {"cups_current": 20, "name": "sellpoint253", "company": 0, "station": 253, "cups_desired": 20}, "model": "website.SellPoint"}, {"pk": 253, "fields": {"station": 253}, "model": "website.DropOff"}, {"pk": 254, "fields": {"lon": 8.85269238166, "name": "Lachen", "lat": 47.190068574, "importance": 3}, "model": "website.Station"}, {"pk": 254, "fields": {"cups_current": 28, "name": "sellpoint254", "company": 0, "station": 254, "cups_desired": 28}, "model": "website.SellPoint"}, {"pk": 254, "fields": {"station": 254}, "model": "website.DropOff"}, {"pk": 255, "fields": {"lon": 9.46337580999, "name": "Horn", "lat": 47.493176824, "importance": 3}, "model": "website.Station"}, {"pk": 255, "fields": {"cups_current": 20, "name": "sellpoint255", "company": 0, "station": 255, "cups_desired": 20}, "model": "website.SellPoint"}, {"pk": 255, "fields": {"station": 255}, "model": "website.DropOff"}, {"pk": 256, "fields": {"lon": 9.08317218002, "name": "Lichtensteig", "lat": 47.3196954706, "importance": 3}, "model": "website.Station"}, {"pk": 256, "fields": {"cups_current": 20, "name": "sellpoint256", "company": 0, "station": 256, "cups_desired": 20}, "model": "website.SellPoint"}, {"pk": 256, "fields": {"station": 256}, "model": "website.DropOff"}, {"pk": 257, "fields": {"lon": 9.19026101005, "name": "Lengwil", "lat": 47.6255999765, "importance": 3}, "model": "website.Station"}, {"pk": 257, "fields": {"cups_current": 20, "name": "sellpoint257", "company": 0, "station": 257, "cups_desired": 20}, "model": "website.SellPoint"}, {"pk": 257, "fields": {"station": 257}, "model": "website.DropOff"}, {"pk": 258, "fields": {"lon": 6.51954667355, "name": "Lonay-Préverenges", "lat": 46.5231229916, "importance": 3}, "model": "website.Station"}, {"pk": 258, "fields": {"cups_current": 20, "name": "sellpoint258", "company": 0, "station": 258, "cups_desired": 20}, "model": "website.SellPoint"}, {"pk": 258, "fields": {"station": 258}, "model": "website.DropOff"}, {"pk": 259, "fields": {"lon": 6.14734101981, "name": "Les Tuileries", "lat": 46.2499433407, "importance": 3}, "model": "website.Station"}, {"pk": 259, "fields": {"cups_current": 20, "name": "sellpoint259", "company": 0, "station": 259, "cups_desired": 20}, "model": "website.SellPoint"}, {"pk": 259, "fields": {"station": 259}, "model": "website.DropOff"}, {"pk": 260, "fields": {"lon": 7.01162043632, "name": "Léchelles", "lat": 46.8284488203, "importance": 3}, "model": "website.Station"}, {"pk": 260, "fields": {"cups_current": 20, "name": "sellpoint260", "company": 0, "station": 260, "cups_desired": 20}, "model": "website.SellPoint"}, {"pk": 260, "fields": {"station": 260}, "model": "website.DropOff"}, {"pk": 261, "fields": {"lon": 7.06632947231, "name": "Le Landeron", "lat": 47.056626064, "importance": 2}, "model": "website.Station"}, {"pk": 261, "fields": {"cups_current": 11, "name": "sellpoint261", "company": 0, "station": 261, "cups_desired": 11}, "model": "website.SellPoint"}, {"pk": 261, "fields": {"station": 261}, "model": "website.DropOff"}, {"pk": 262, "fields": {"lon": 8.56680664761, "name": "Lottstetten", "lat": 47.6257356296, "importance": 3}, "model": "website.Station"}, {"pk": 262, "fields": {"cups_current": 20, "name": "sellpoint262", "company": 0, "station": 262, "cups_desired": 20}, "model": "website.SellPoint"}, {"pk": 262, "fields": {"station": 262}, "model": "website.DropOff"}, {"pk": 263, "fields": {"lon": 6.62909314109, "name": "Lausanne", "lat": 46.5167786487, "importance": 5}, "model": "website.Station"}, {"pk": 263, "fields": {"cups_current": 941, "name": "sellpoint263", "company": 0, "station": 263, "cups_desired": 941}, "model": "website.SellPoint"}, {"pk": 263, "fields": {"station": 263}, "model": "website.DropOff"}, {"pk": 264, "fields": {"lon": 8.83974336723, "name": "Lavorgo", "lat": 46.4408978389, "importance": 3}, "model": "website.Station"}, {"pk": 264, "fields": {"cups_current": 20, "name": "sellpoint264", "company": 0, "station": 264, "cups_desired": 20}, "model": "website.SellPoint"}, {"pk": 264, "fields": {"station": 264}, "model": "website.DropOff"}, {"pk": 265, "fields": {"lon": 7.50263030739, "name": "Laufen", "lat": 47.4193383263, "importance": 4}, "model": "website.Station"}, {"pk": 265, "fields": {"cups_current": 54, "name": "sellpoint265", "company": 0, "station": 265, "cups_desired": 54}, "model": "website.SellPoint"}, {"pk": 265, "fields": {"station": 265}, "model": "website.DropOff"}, {"pk": 266, "fields": {"lon": 8.64595208918, "name": "Feuerthalen", "lat": 47.6921636376, "importance": 3}, "model": "website.Station"}, {"pk": 266, "fields": {"cups_current": 20, "name": "sellpoint266", "company": 0, "station": 266, "cups_desired": 20}, "model": "website.SellPoint"}, {"pk": 266, "fields": {"station": 266}, "model": "website.DropOff"}, {"pk": 267, "fields": {"lon": 9.22619100908, "name": "Erlen", "lat": 47.5514562601, "importance": 3}, "model": "website.Station"}, {"pk": 267, "fields": {"cups_current": 20, "name": "sellpoint267", "company": 0, "station": 267, "cups_desired": 20}, "model": "website.SellPoint"}, {"pk": 267, "fields": {"station": 267}, "model": "website.DropOff"}, {"pk": 268, "fields": {"lon": 8.94316091804, "name": "Felben-Wellhausen", "lat": 47.5771019005, "importance": 3}, "model": "website.Station"}, {"pk": 268, "fields": {"cups_current": 20, "name": "sellpoint268", "company": 0, "station": 268, "cups_desired": 20}, "model": "website.SellPoint"}, {"pk": 268, "fields": {"station": 268}, "model": "website.DropOff"}, {"pk": 269, "fields": {"lon": 8.75026509676, "name": "Fehraltorf", "lat": 47.3851215525, "importance": 3}, "model": "website.Station"}, {"pk": 269, "fields": {"cups_current": 31, "name": "sellpoint269", "company": 0, "station": 269, "cups_desired": 31}, "model": "website.SellPoint"}, {"pk": 269, "fields": {"station": 269}, "model": "website.DropOff"}, {"pk": 270, "fields": {"lon": 7.02552647988, "name": "Evionnaz", "lat": 46.1692425762, "importance": 3}, "model": "website.Station"}, {"pk": 270, "fields": {"cups_current": 20, "name": "sellpoint270", "company": 0, "station": 270, "cups_desired": 20}, "model": "website.SellPoint"}, {"pk": 270, "fields": {"station": 270}, "model": "website.DropOff"}, {"pk": 271, "fields": {"lon": 8.92327465614, "name": "Fischenthal", "lat": 47.333298028, "importance": 3}, "model": "website.Station"}, {"pk": 271, "fields": {"cups_current": 20, "name": "sellpoint271", "company": 0, "station": 271, "cups_desired": 20}, "model": "website.SellPoint"}, {"pk": 271, "fields": {"station": 271}, "model": "website.DropOff"}, {"pk": 272, "fields": {"lon": 6.74516355201, "name": "Epesses", "lat": 46.4893183671, "importance": 3}, "model": "website.Station"}, {"pk": 272, "fields": {"cups_current": 20, "name": "sellpoint272", "company": 0, "station": 272, "cups_desired": 20}, "model": "website.SellPoint"}, {"pk": 272, "fields": {"station": 272}, "model": "website.DropOff"}, {"pk": 273, "fields": {"lon": 8.95851470682, "name": "Eschlikon", "lat": 47.4614892248, "importance": 2}, "model": "website.Station"}, {"pk": 273, "fields": {"cups_current": 12, "name": "sellpoint273", "company": 0, "station": 273, "cups_desired": 12}, "model": "website.SellPoint"}, {"pk": 273, "fields": {"station": 273}, "model": "website.DropOff"}, {"pk": 274, "fields": {"lon": 8.78348281363, "name": "Feldbach", "lat": 47.2391975436, "importance": 2}, "model": "website.Station"}, {"pk": 274, "fields": {"cups_current": 12, "name": "sellpoint274", "company": 0, "station": 274, "cups_desired": 12}, "model": "website.SellPoint"}, {"pk": 274, "fields": {"station": 274}, "model": "website.DropOff"}, {"pk": 275, "fields": {"lon": 9.1897661689, "name": "Flawil", "lat": 47.4151898192, "importance": 3}, "model": "website.Station"}, {"pk": 275, "fields": {"cups_current": 32, "name": "sellpoint275", "company": 0, "station": 275, "cups_desired": 32}, "model": "website.SellPoint"}, {"pk": 275, "fields": {"station": 275}, "model": "website.DropOff"}, {"pk": 276, "fields": {"lon": 6.11198571992, "name": "Genève-Aéroport", "lat": 46.2325293452, "importance": 4}, "model": "website.Station"}, {"pk": 276, "fields": {"cups_current": 137, "name": "sellpoint276", "company": 0, "station": 276, "cups_desired": 137}, "model": "website.SellPoint"}, {"pk": 276, "fields": {"station": 276}, "model": "website.DropOff"}, {"pk": 277, "fields": {"lon": 6.15396312897, "name": "Genthod-Bellevue", "lat": 46.2567305087, "importance": 2}, "model": "website.Station"}, {"pk": 277, "fields": {"cups_current": 11, "name": "sellpoint277", "company": 0, "station": 277, "cups_desired": 11}, "model": "website.SellPoint"}, {"pk": 277, "fields": {"station": 277}, "model": "website.DropOff"}, {"pk": 278, "fields": {"lon": 8.4204230971, "name": "Glanzenberg", "lat": 47.3988744293, "importance": 3}, "model": "website.Station"}, {"pk": 278, "fields": {"cups_current": 34, "name": "sellpoint278", "company": 0, "station": 278, "cups_desired": 34}, "model": "website.SellPoint"}, {"pk": 278, "fields": {"station": 278}, "model": "website.DropOff"}, {"pk": 279, "fields": {"lon": 7.0480940862, "name": "Grandgourt", "lat": 47.4699139104, "importance": 3}, "model": "website.Station"}, {"pk": 279, "fields": {"cups_current": 20, "name": "sellpoint279", "company": 0, "station": 279, "cups_desired": 20}, "model": "website.SellPoint"}, {"pk": 279, "fields": {"station": 279}, "model": "website.DropOff"}, {"pk": 280, "fields": {"lon": 8.55883224276, "name": "Glattbrugg", "lat": 47.4308254769, "importance": 4}, "model": "website.Station"}, {"pk": 280, "fields": {"cups_current": 48, "name": "sellpoint280", "company": 0, "station": 280, "cups_desired": 48}, "model": "website.SellPoint"}, {"pk": 280, "fields": {"station": 280}, "model": "website.DropOff"}, {"pk": 281, "fields": {"lon": 9.25303263655, "name": "Gossau SG", "lat": 47.4118296551, "importance": 4}, "model": "website.Station"}, {"pk": 281, "fields": {"cups_current": 101, "name": "sellpoint281", "company": 0, "station": 281, "cups_desired": 101}, "model": "website.SellPoint"}, {"pk": 281, "fields": {"station": 281}, "model": "website.DropOff"}, {"pk": 282, "fields": {"lon": 8.37240400077, "name": "Grafenort", "lat": 46.8706013366, "importance": 3}, "model": "website.Station"}, {"pk": 282, "fields": {"cups_current": 20, "name": "sellpoint282", "company": 0, "station": 282, "cups_desired": 20}, "model": "website.SellPoint"}, {"pk": 282, "fields": {"station": 282}, "model": "website.DropOff"}, {"pk": 283, "fields": {"lon": 9.46699032646, "name": "Goldach", "lat": 47.4737971116, "importance": 2}, "model": "website.Station"}, {"pk": 283, "fields": {"cups_current": 13, "name": "sellpoint283", "company": 0, "station": 283, "cups_desired": 13}, "model": "website.SellPoint"}, {"pk": 283, "fields": {"station": 283}, "model": "website.DropOff"},