[{"pk": 0, "model": "website.Company", "fields": {"name": "company0"}}, {"pk": 0, "model": "website.Station", "fields": {"importance": 4, "lon": 8.44658239143, "name": "Affoltern am Albis", "lat": 47.276064074}}, {"pk": 0, "model": "website.SellPoint", "fields": {"company": 0, "cups_desired": 75, "station": 0, "name": "sellpoint0", "cups_current": 75}}, {"pk": 0, "model": "website.DropOff", "fields": {"station": 0}}, {"pk": 1, "model": "website.Station", "fields": {"importance": 3, "lon": 9.25200601938, "name": "Arnegg", "lat": 47.4420020412}}, {"pk": 1, "model": "website.SellPoint", "fields": {"company": 0, "cups_desired": 20, "station": 1, "name": "sellpoint1", "cups_current": 20}}, {"pk": 1, "model": "website.DropOff", "fields": {"station": 1}}, {"pk": 2, "model": "website.Station", "fields": {"importance": 3, "lon": 8.2778329759, "name": "Alpnachstad", "lat": 46.9550392879}}, {"pk": 2, "model": "website.SellPoint", "fields": {"company": 0, "cups_desired": 20, "station": 2, "name": "sellpoint2", "cups_current": 20}}, {"pk": 2, "model": "website.DropOff", "fields": {"station": 2}}, {"pk": 3, "model": "website.Station", "fields": {"importance": 4, "lon": 8.05125354274, "name": "Aarau", "lat": 47.3913553369}}, {"pk": 3, "model": "website.SellPoint", "fields": {"company": 0, "cups_desired": 359, "station": 3, "name": "sellpoint3", "cups_current": 359}}, {"pk": 3, "model": "website.DropOff", "fields": {"station": 3}}, {"pk": 4, "model": "website.Station", "fields": {"importance": 3, "lon": 8.51775897551, "name": "Baar Neufeld", "lat": 47.1884876743}}, {"pk": 4, "model": "website.SellPoint", "fields": {"company": 0, "cups_desired": 20, "station": 4, "name": "sellpoint4", "cups_current": 20}}, {"pk": 4, "model": "website.DropOff", "fields": {"station": 4}}, {"pk": 5, "model": "website.Station", "fields": {"importance": 2, "lon": 8.27524412618, "name": "Alpnach Dorf", "lat": 46.9406471179}}, {"pk": 5, "model": "website.SellPoint", "fields": {"company": 0, "cups_desired": 14, "station": 5, "name": "sellpoint5", "cups_current": 14}}, {"pk": 5, "model": "website.DropOff", "fields": {"station": 5}}, {"pk": 6, "model": "website.Station", "fields": {"importance": 3, "lon": 8.6086051345, "name": "Airolo", "lat": 46.5275264817}}, {"pk": 6, "model": "website.SellPoint", "fields": {"company": 0, "cups_desired": 20, "station": 6, "name": "sellpoint6", "cups_current": 20}}, {"pk": 6, "model": "website.DropOff", "fields": {"station": 6}}, {"pk": 7, "model": "website.Station", "fields": {"importance": 3, "lon": 9.64124454757, "name": "Au SG", "lat": 47.4361134139}}, {"pk": 7, "model": "website.SellPoint", "fields": {"company": 0, "cups_desired": 20, "station": 7, "name": "sellpoint7", "cups_current": 20}}, {"pk": 7, "model": "website.DropOff", "fields": {"station": 7}}, {"pk": 8, "model": "website.Station", "fields": {"importance": 3, "lon": 9.17451078978, "name": "Berg", "lat": 47.5822523245}}, {"pk": 8, "model": "website.SellPoint", "fields": {"company": 0, "cups_desired": 20, "station": 8, "name": "sellpoint8", "cups_current": 20}}, {"pk": 8, "model": "website.DropOff", "fields": {"station": 8}}, {"pk": 9, "model": "website.Station", "fields": {"importance": 4, "lon": 8.4375437434, "name": "Birmensdorf ZH", "lat": 47.3574317945}}, {"pk": 9, "model": "website.SellPoint", "fields": {"company": 0, "cups_desired": 40, "station": 9, "name": "sellpoint9", "cups_current": 40}}, {"pk": 9, "model": "website.DropOff", "fields": {"station": 9}}, {"pk": 10, "model": "website.Station", "fields": {"importance": 4, "lon": 9.02950898687, "name": "Bellinzona", "lat": 46.195436816}}, {"pk": 10, "model": "website.SellPoint", "fields": {"company": 0, "cups_desired": 134, "station": 10, "name": "sellpoint10", "cups_current": 134}}, {"pk": 10, "model": "website.DropOff", "fields": {"station": 10}}, {"pk": 11, "model": "website.Station", "fields": {"importance": 3, "lon": 9.02076959637, "name": "Bettwiesen", "lat": 47.498616599}}, {"pk": 11, "model": "website.SellPoint", "fields": {"company": 0, "cups_desired": 20, "station": 11, "name": "sellpoint11", "cups_current": 20}}, {"pk": 11, "model": "website.DropOff", "fields": {"station": 11}}, {"pk": 12, "model": "website.Station", "fields": {"importance": 3, "lon": 7.10622789234, "name": "Belfaux CFF", "lat": 46.8169170976}}, {"pk": 12, "model": "website.SellPoint", "fields": {"company": 0, "cups_desired": 20, "station": 12, "name": "sellpoint12", "cups_current": 20}}, {"pk": 12, "model": "website.DropOff", "fields": {"station": 12}}, {"pk": 13, "model": "website.Station", "fields": {"importance": 3, "lon": 8.72269985597, "name": "Biberbrugg", "lat": 47.1563731698}}, {"pk": 13, "model": "website.SellPoint", "fields": {"company": 0, "cups_desired": 26, "station": 13, "name": "sellpoint13", "cups_current": 26}}, {"pk": 13, "model": "website.DropOff", "fields": {"station": 13}}, {"pk": 14, "model": "website.Station", "fields": {"importance": 3, "lon": 7.27247559035, "name": "Biel Mett", "lat": 47.1447131206}}, {"pk": 14, "model": "website.SellPoint", "fields": {"company": 0, "cups_desired": 20, "station": 14, "name": "sellpoint14", "cups_current": 20}}, {"pk": 14, "model": "website.DropOff", "fields": {"station": 14}}, {"pk": 15, "model": "website.Station", "fields": {"importance": 3, "lon": 8.66913007113, "name": "Biberegg", "lat": 47.0933123123}}, {"pk": 15, "model": "website.SellPoint", "fields": {"company": 0, "cups_desired": 20, "station": 15, "name": "sellpoint15", "cups_current": 20}}, {"pk": 15, "model": "website.DropOff", "fields": {"station": 15}}, {"pk": 16, "model": "website.Station", "fields": {"importance": 3, "lon": 6.55933195932, "name": "Bavois", "lat": 46.6876714456}}, {"pk": 16, "model": "website.SellPoint", "fields": {"company": 0, "cups_desired": 20, "station": 16, "name": "sellpoint16", "cups_current": 20}}, {"pk": 16, "model": "website.DropOff", "fields": {"station": 16}}, {"pk": 17, "model": "website.Station", "fields": {"importance": 3, "lon": 8.31688138659, "name": "Ballwil", "lat": 47.1537643847}}, {"pk": 17, "model": "website.SellPoint", "fields": {"company": 0, "cups_desired": 20, "station": 17, "name": "sellpoint17", "cups_current": 20}}, {"pk": 17, "model": "website.DropOff", "fields": {"station": 17}}, {"pk": 18, "model": "website.Station", "fields": {"importance": 3, "lon": 9.24146504156, "name": "Bischofszell Stadt", "lat": 47.4921416385}}, {"pk": 18, "model": "website.SellPoint", "fields": {"company": 0, "cups_desired": 20, "station": 18, "name": "sellpoint18", "cups_current": 20}}, {"pk": 18, "model": "website.DropOff", "fields": {"station": 18}}, {"pk": 19, "model": "website.Station", "fields": {"importance": 3, "lon": 7.30510604689, "name": "Châteauneuf-Conthey", "lat": 46.2161054868}}, {"pk": 19, "model": "website.SellPoint", "fields": {"company": 0, "cups_desired": 20, "station": 19, "name": "sellpoint19", "cups_current": 20}}, {"pk": 19, "model": "website.DropOff", "fields": {"station": 19}}, {"pk": 20, "model": "website.Station", "fields": {"importance": 3, "lon": 8.31527271204, "name": "Boswil-Bünzen", "lat": 47.305174603}}, {"pk": 20, "model": "website.SellPoint", "fields": {"company": 0, "cups_desired": 20, "station": 20, "name": "sellpoint20", "cups_current": 20}}, {"pk": 20, "model": "website.DropOff", "fields": {"station": 20}}, {"pk": 21, "model": "website.Station", "fields": {"importance": 3, "lon": 6.69932418234, "name": "Bossière", "lat": 46.5097374876}}, {"pk": 21, "model": "website.SellPoint", "fields": {"company": 0, "cups_desired": 20, "station": 21, "name": "sellpoint21", "cups_current": 20}}, {"pk": 21, "model": "website.DropOff", "fields": {"station": 21}}, {"pk": 22, "model": "website.Station", "fields": {"importance": 3, "lon": 8.6926955866, "name": "Burghalden", "lat": 47.2086734144}}, {"pk": 22, "model": "website.SellPoint", "fields": {"company": 0, "cups_desired": 20, "station": 22, "name": "sellpoint22", "cups_current": 20}}, {"pk": 22, "model": "website.DropOff", "fields": {"station": 22}}, {"pk": 23, "model": "website.Station", "fields": {"importance": 3, "lon": 6.87711567196, "name": "Burier", "lat": 46.4478763825}}, {"pk": 23, "model": "website.SellPoint", "fields": {"company": 0, "cups_desired": 20, "station": 23, "name": "sellpoint23", "cups_current": 20}}, {"pk": 23, "model": "website.DropOff", "fields": {"station": 23}}, {"pk": 24, "model": "website.Station", "fields": {"importance": 4, "lon": 8.20882744791, "name": "Brugg AG", "lat": 47.4808528316}}, {"pk": 24, "model": "website.SellPoint", "fields": {"company": 0, "cups_desired": 200, "station": 24, "name": "sellpoint24", "cups_current": 200}}, {"pk": 24, "model": "website.DropOff", "fields": {"station": 24}}, {"pk": 25, "model": "website.Station", "fields": {"importance": 4, "lon": 8.82270102308, "name": "Bubikon", "lat": 47.2708395927}}, {"pk": 25, "model": "website.SellPoint", "fields": {"company": 0, "cups_desired": 51, "station": 25, "name": "sellpoint25", "cups_current": 51}}, {"pk": 25, "model": "website.DropOff", "fields": {"station": 25}}, {"pk": 26, "model": "website.Station", "fields": {"importance": 3, "lon": 6.83768561375, "name": "Bôle", "lat": 46.9689572835}}, {"pk": 26, "model": "website.SellPoint", "fields": {"company": 0, "cups_desired": 20, "station": 26, "name": "sellpoint26", "cups_current": 20}}, {"pk": 26, "model": "website.DropOff", "fields": {"station": 26}}, {"pk": 27, "model": "website.Station", "fields": {"importance": 3, "lon": 6.83768561375, "name": "Bressonnaz", "lat": 46.9689572835}}, {"pk": 27, "model": "website.SellPoint", "fields": {"company": 0, "cups_desired": 20, "station": 27, "name": "sellpoint27", "cups_current": 20}}, {"pk": 27, "model": "website.DropOff", "fields": {"station": 27}}, {"pk": 28, "model": "website.Station", "fields": {"importance": 3, "lon": 8.97453911285, "name": "Hüttlingen-Mettendorf", "lat": 47.5823394904}}, {"pk": 28, "model": "website.SellPoint", "fields": {"company": 0, "cups_desired": 20, "station": 28, "name": "sellpoint28", "cups_current": 20}}, {"pk": 28, "model": "website.DropOff", "fields": {"station": 28}}, {"pk": 29, "model": "website.Station", "fields": {"importance": 3, "lon": 8.69481326415, "name": "Hettlingen", "lat": 47.5454376137}}, {"pk": 29, "model": "website.SellPoint", "fields": {"company": 0, "cups_desired": 20, "station": 29, "name": "sellpoint29", "cups_current": 20}}, {"pk": 29, "model": "website.DropOff", "fields": {"station": 29}}, {"pk": 30, "model": "website.Station", "fields": {"importance": 3, "lon": 9.25157587262, "name": "Hauptwil", "lat": 47.4768608536}}, {"pk": 30, "model": "website.SellPoint", "fields": {"company": 0, "cups_desired": 20, "station": 30, "name": "sellpoint30", "cups_current": 20}}, {"pk": 30, "model": "website.DropOff", "fields": {"station": 30}}, {"pk": 31, "model": "website.Station", "fields": {"importance": 3, "lon": 8.31271109334, "name": "Hergiswil Matt", "lat": 46.9936310359}}, {"pk": 31, "model": "website.SellPoint", "fields": {"company": 0, "cups_desired": 20, "station": 31, "name": "sellpoint31", "cups_current": 20}}, {"pk": 31, "model": "website.DropOff", "fields": {"station": 31}}, {"pk": 32, "model": "website.Station", "fields": {"importance": 3, "lon": 8.81429184846, "name": "Kempraten", "lat": 47.2383929337}}, {"pk": 32, "model": "website.SellPoint", "fields": {"company": 0, "cups_desired": 20, "station": 32, "name": "sellpoint32", "cups_current": 20}}, {"pk": 32, "model": "website.DropOff", "fields": {"station": 32}}, {"pk": 33, "model": "website.Station", "fields": {"importance": 3, "lon": 8.44595351443, "name": "Hedingen", "lat": 47.2987825148}}, {"pk": 33, "model": "website.SellPoint", "fields": {"company": 0, "cups_desired": 22, "station": 33, "name": "sellpoint33", "cups_current": 22}}, {"pk": 33, "model": "website.DropOff", "fields": {"station": 33}}, {"pk": 34, "model": "website.Station", "fields": {"importance": 2, "lon": 7.78720690694, "name": "Itingen", "lat": 47.4672660009}}, {"pk": 34, "model": "website.SellPoint", "fields": {"company": 0, "cups_desired": 10, "station": 34, "name": "sellpoint34", "cups_current": 10}}, {"pk": 34, "model": "website.DropOff", "fields": {"station": 34}}, {"pk": 35, "model": "website.Station", "fields": {"importance": 3, "lon": 8.30697000723, "name": "Horw", "lat": 47.017477083}}, {"pk": 35, "model": "website.SellPoint", "fields": {"company": 0, "cups_desired": 20, "station": 35, "name": "sellpoint35", "cups_current": 20}}, {"pk": 35, "model": "website.DropOff", "fields": {"station": 35}}, {"pk": 36, "model": "website.Station", "fields": {"importance": 3, "lon": 8.81859374588, "name": "Etzwilen", "lat": 47.6611436806}}, {"pk": 36, "model": "website.SellPoint", "fields": {"company": 0, "cups_desired": 20, "station": 36, "name": "sellpoint36", "cups_current": 20}}, {"pk": 36, "model": "website.DropOff", "fields": {"station": 36}}, {"pk": 37, "model": "website.Station", "fields": {"importance": 4, "lon": 7.15102324519, "name": "Fribourg/Freiburg", "lat": 46.8032670642}}, {"pk": 37, "model": "website.SellPoint", "fields": {"company": 0, "cups_desired": 216, "station": 37, "name": "sellpoint37", "cups_current": 216}}, {"pk": 37, "model": "website.DropOff", "fields": {"station": 37}}, {"pk": 38, "model": "website.Station", "fields": {"importance": 3, "lon": 6.89428928731, "name": "Granges-Marnand", "lat": 46.7588357696}}, {"pk": 38, "model": "website.SellPoint", "fields": {"company": 0, "cups_desired": 20, "station": 38, "name": "sellpoint38", "cups_current": 20}}, {"pk": 38, "model": "website.DropOff", "fields": {"station": 38}}, {"pk": 39, "model": "website.Station", "fields": {"importance": 3, "lon": 8.91701626605, "name": "Guntershausen", "lat": 47.4741351028}}, {"pk": 39, "model": "website.SellPoint", "fields": {"company": 0, "cups_desired": 20, "station": 39, "name": "sellpoint39", "cups_current": 20}}, {"pk": 39, "model": "website.DropOff", "fields": {"station": 39}}, {"pk": 40, "model": "website.Station", "fields": {"importance": 2, "lon": 8.39477668629, "name": "Gisikon-Root", "lat": 47.1213263146}}, {"pk": 40, "model": "website.SellPoint", "fields": {"company": 0, "cups_desired": 10, "station": 40, "name": "sellpoint40", "cups_current": 10}}, {"pk": 40, "model": "website.DropOff", "fields": {"station": 40}}, {"pk": 41, "model": "website.Station", "fields": {"importance": 2, "lon": 7.59198326877, "name": "Grellingen", "lat": 47.4412906001}}, {"pk": 41, "model": "website.SellPoint", "fields": {"company": 0, "cups_desired": 17, "station": 41, "name": "sellpoint41", "cups_current": 17}}, {"pk": 41, "model": "website.DropOff", "fields": {"station": 41}}, {"pk": 42, "model": "website.Station", "fields": {"importance": 3, "lon": 6.72264722367, "name": "Grandvaux", "lat": 46.4969419201}}, {"pk": 42, "model": "website.SellPoint", "fields": {"company": 0, "cups_desired": 20, "station": 42, "name": "sellpoint42", "cups_current": 20}}, {"pk": 42, "model": "website.DropOff", "fields": {"station": 42}}, {"pk": 43, "model": "website.Station", "fields": {"importance": 3, "lon": 9.31675442795, "name": "Gübsensee", "lat": 47.3979011244}}, {"pk": 43, "model": "website.SellPoint", "fields": {"company": 0, "cups_desired": 20, "station": 43, "name": "sellpoint43", "cups_current": 20}}, {"pk": 43, "model": "website.DropOff", "fields": {"station": 43}}, {"pk": 44, "model": "website.Station", "fields": {"importance": 3, "lon": 7.07459265792, "name": "Faoug", "lat": 46.9082315978}}, {"pk": 44, "model": "website.SellPoint", "fields": {"company": 0, "cups_desired": 20, "station": 44, "name": "sellpoint44", "cups_current": 20}}, {"pk": 44, "model": "website.DropOff", "fields": {"station": 44}}, {"pk": 45, "model": "website.Station", "fields": {"importance": 4, "lon": 6.26913801937, "name": "Gland", "lat": 46.419975355}}, {"pk": 45, "model": "website.SellPoint", "fields": {"company": 0, "cups_desired": 57, "station": 45, "name": "sellpoint45", "cups_current": 57}}, {"pk": 45, "model": "website.DropOff", "fields": {"station": 45}}, {"pk": 46, "model": "website.Station", "fields": {"importance": 3, "lon": 8.27679952708, "name": "Emmenbrücke Gersag", "lat": 47.0783132004}}, {"pk": 46, "model": "website.SellPoint", "fields": {"company": 0, "cups_desired": 30, "station": 46, "name": "sellpoint46", "cups_current": 30}}, {"pk": 46, "model": "website.DropOff", "fields": {"station": 46}}, {"pk": 47, "model": "website.Station", "fields": {"importance": 2, "lon": 6.84295890069, "name": "Estavayer-le-Lac", "lat": 46.8444961926}}, {"pk": 47, "model": "website.SellPoint", "fields": {"company": 0, "cups_desired": 12, "station": 47, "name": "sellpoint47", "cups_current": 12}}, {"pk": 47, "model": "website.DropOff", "fields": {"station": 47}}, {"pk": 48, "model": "website.Station", "fields": {"importance": 4, "lon": 7.61110691339, "name": "Dornach-Arlesheim", "lat": 47.488608339}}, {"pk": 48, "model": "website.SellPoint", "fields": {"company": 0, "cups_desired": 48, "station": 48, "name": "sellpoint48", "cups_current": 48}}, {"pk": 48, "model": "website.DropOff", "fields": {"station": 48}}, {"pk": 49, "model": "website.Station", "fields": {"importance": 3, "lon": 6.58065762221, "name": "Essert-Pittet", "lat": 46.7276595753}}, {"pk": 49, "model": "website.SellPoint", "fields": {"company": 0, "cups_desired": 20, "station": 49, "name": "sellpoint49", "cups_current": 20}}, {"pk": 49, "model": "website.DropOff", "fields": {"station": 49}}, {"pk": 50, "model": "website.Station", "fields": {"importance": 3, "lon": 6.81105588343, "name": "Ecublens-Rue", "lat": 46.6104179611}}, {"pk": 50, "model": "website.SellPoint", "fields": {"company": 0, "cups_desired": 20, "station": 50, "name": "sellpoint50", "cups_current": 20}}, {"pk": 50, "model": "website.DropOff", "fields": {"station": 50}}, {"pk": 51, "model": "website.Station", "fields": {"importance": 3, "lon": 8.32277893852, "name": "Eschenbach", "lat": 47.1323911487}}, {"pk": 51, "model": "website.SellPoint", "fields": {"company": 0, "cups_desired": 20, "station": 51, "name": "sellpoint51", "cups_current": 20}}, {"pk": 51, "model": "website.DropOff", "fields": {"station": 51}}, {"pk": 52, "model": "website.Station", "fields": {"importance": 3, "lon": 8.24230319429, "name": "Ermensee", "lat": 47.2296890898}}, {"pk": 52, "model": "website.SellPoint", "fields": {"company": 0, "cups_desired": 20, "station": 52, "name": "sellpoint52", "cups_current": 20}}, {"pk": 52, "model": "website.DropOff", "fields": {"station": 52}}, {"pk": 53, "model": "website.Station", "fields": {"importance": 2, "lon": 8.40264298232, "name": "Engelberg", "lat": 46.8195231702}}, {"pk": 53, "model": "website.SellPoint", "fields": {"company": 0, "cups_desired": 18, "station": 53, "name": "sellpoint53", "cups_current": 18}}, {"pk": 53, "model": "website.DropOff", "fields": {"station": 53}}, {"pk": 54, "model": "website.Station", "fields": {"importance": 3, "lon": 6.60765826253, "name": "Ependes", "lat": 46.7464094417}}, {"pk": 54, "model": "website.SellPoint", "fields": {"company": 0, "cups_desired": 20, "station": 54, "name": "sellpoint54", "cups_current": 20}}, {"pk": 54, "model": "website.DropOff", "fields": {"station": 54}}, {"pk": 55, "model": "website.Station", "fields": {"importance": 2, "lon": 6.42713908598, "name": "Etoy", "lat": 46.4751599503}}, {"pk": 55, "model": "website.SellPoint", "fields": {"company": 0, "cups_desired": 12, "station": 55, "name": "sellpoint55", "cups_current": 12}}, {"pk": 55, "model": "website.DropOff", "fields": {"station": 55}}, {"pk": 56, "model": "website.Station", "fields": {"importance": 3, "lon": 9.02436242331, "name": "Diesbach-Betschwanden", "lat": 46.9461769693}}, {"pk": 56, "model": "website.SellPoint", "fields": {"company": 0, "cups_desired": 20, "station": 56, "name": "sellpoint56", "cups_current": 20}}, {"pk": 56, "model": "website.DropOff", "fields": {"station": 56}}, {"pk": 57, "model": "website.Station", "fields": {"importance": 3, "lon": 6.9571860007, "name": "Corcelles-Sud", "lat": 46.8288436102}}, {"pk": 57, "model": "website.SellPoint", "fields": {"company": 0, "cups_desired": 20, "station": 57, "name": "sellpoint57", "cups_current": 20}}, {"pk": 57, "model": "website.DropOff", "fields": {"station": 57}}, {"pk": 58, "model": "website.Station", "fields": {"importance": 3, "lon": 7.05412061848, "name": "Cormoret", "lat": 47.1729358067}}, {"pk": 58, "model": "website.SellPoint", "fields": {"company": 0, "cups_desired": 20, "station": 58, "name": "sellpoint58", "cups_current": 20}}, {"pk": 58, "model": "website.DropOff", "fields": {"station": 58}}, {"pk": 59, "model": "website.Station", "fields": {"importance": 3, "lon": 7.10729623806, "name": "Cortébert", "lat": 47.1893284366}}, {"pk": 59, "model": "website.SellPoint", "fields": {"company": 0, "cups_desired": 20, "station": 59, "name": "sellpoint59", "cups_current": 20}}, {"pk": 59, "model": "website.DropOff", "fields": {"station": 59}}, {"pk": 60, "model": "website.Station", "fields": {"importance": 3, "lon": 7.12419139803, "name": "Courgenay", "lat": 47.4052177358}}, {"pk": 60, "model": "website.SellPoint", "fields": {"company": 0, "cups_desired": 20, "station": 60, "name": "sellpoint60", "cups_current": 20}}, {"pk": 60, "model": "website.DropOff", "fields": {"station": 60}}, {"pk": 61, "model": "website.Station", "fields": {"importance": 3, "lon": 6.97748421108, "name": "Cousset", "lat": 46.8186006837}}, {"pk": 61, "model": "website.SellPoint", "fields": {"company": 0, "cups_desired": 20, "station": 61, "name": "sellpoint61", "cups_current": 20}}, {"pk": 61, "model": "website.DropOff", "fields": {"station": 61}}, {"pk": 62, "model": "website.Station", "fields": {"importance": 3, "lon": 7.03479684592, "name": "Cottens", "lat": 46.7512079019}}, {"pk": 62, "model": "website.SellPoint", "fields": {"company": 0, "cups_desired": 20, "station": 62, "name": "sellpoint62", "cups_current": 20}}, {"pk": 62, "model": "website.DropOff", "fields": {"station": 62}}, {"pk": 63, "model": "website.Station", "fields": {"importance": 3, "lon": 8.39205809023, "name": "Dallenwil", "lat": 46.9337794802}}, {"pk": 63, "model": "website.SellPoint", "fields": {"company": 0, "cups_desired": 20, "station": 63, "name": "sellpoint63", "cups_current": 20}}, {"pk": 63, "model": "website.DropOff", "fields": {"station": 63}}, {"pk": 64, "model": "website.Station", "fields": {"importance": 3, "lon": 7.61889907416, "name": "Deitingen", "lat": 47.218217892}}, {"pk": 64, "model": "website.SellPoint", "fields": {"company": 0, "cups_desired": 20, "station": 64, "name": "sellpoint64", "cups_current": 20}}, {"pk": 64, "model": "website.DropOff", "fields": {"station": 64}}, {"pk": 65, "model": "website.Station", "fields": {"importance": 3, "lon": 7.97875336334, "name": "Däniken", "lat": 47.356386391}}, {"pk": 65, "model": "website.SellPoint", "fields": {"company": 0, "cups_desired": 20, "station": 65, "name": "sellpoint65", "cups_current": 20}}, {"pk": 65, "model": "website.DropOff", "fields": {"station": 65}}, {"pk": 66, "model": "website.Station", "fields": {"importance": 3, "lon": 8.70557069755, "name": "Kemptthal", "lat": 47.452833265}}, {"pk": 66, "model": "website.SellPoint", "fields": {"company": 0, "cups_desired": 20, "station": 66, "name": "sellpoint66", "cups_current": 20}}, {"pk": 66, "model": "website.DropOff", "fields": {"station": 66}}, {"pk": 67, "model": "website.Station", "fields": {"importance": 3, "lon": 8.4667085831, "name": "Knonau", "lat": 47.2202591199}}, {"pk": 67, "model": "website.SellPoint", "fields": {"company": 0, "cups_desired": 20, "station": 67, "name": "sellpoint67", "cups_current": 20}}, {"pk": 67, "model": "website.DropOff", "fields": {"station": 67}}, {"pk": 68, "model": "website.Station", "fields": {"importance": 3, "lon": 8.35419430986, "name": "Killwangen-Spreitenbach", "lat": 47.433328238}}, {"pk": 68, "model": "website.SellPoint", "fields": {"company": 0, "cups_desired": 36, "station": 68, "name": "sellpoint68", "cups_current": 36}}, {"pk": 68, "model": "website.DropOff", "fields": {"station": 68}}, {"pk": 69, "model": "website.Station", "fields": {"importance": 3, "lon": 8.24881875083, "name": "Klingnau", "lat": 47.5820892736}}, {"pk": 69, "model": "website.SellPoint", "fields": {"company": 0, "cups_desired": 20, "station": 69, "name": "sellpoint69", "cups_current": 20}}, {"pk": 69, "model": "website.DropOff", "fields": {"station": 69}}, {"pk": 70, "model": "website.Station", "fields": {"importance": 3, "lon": 8.0264455205, "name": "Kölliken", "lat": 47.3372920119}}, {"pk": 70, "model": "website.SellPoint", "fields": {"company": 0, "cups_desired": 20, "station": 70, "name": "sellpoint70", "cups_current": 20}}, {"pk": 70, "model": "website.DropOff", "fields": {"station": 70}}, {"pk": 71, "model": "website.Station", "fields": {"importance": 3, "lon": 9.31740544782, "name": "Kesswil", "lat": 47.5954978156}}, {"pk": 71, "model": "website.SellPoint", "fields": {"company": 0, "cups_desired": 20, "station": 71, "name": "sellpoint71", "cups_current": 20}}, {"pk": 71, "model": "website.DropOff", "fields": {"station": 71}}, {"pk": 72, "model": "website.Station", "fields": {"importance": 4, "lon": 8.69233239506, "name": "Männedorf", "lat": 47.2534223208}}, {"pk": 72, "model": "website.SellPoint", "fields": {"company": 0, "cups_desired": 51, "station": 72, "name": "sellpoint72", "cups_current": 51}}, {"pk": 72, "model": "website.DropOff", "fields": {"station": 72}}, {"pk": 73, "model": "website.Station", "fields": {"importance": 3, "lon": 9.14260584875, "name": "Mogelsberg", "lat": 47.3637431434}}, {"pk": 73, "model": "website.SellPoint", "fields": {"company": 0, "cups_desired": 20, "station": 73, "name": "sellpoint73", "cups_current": 20}}, {"pk": 73, "model": "website.DropOff", "fields": {"station": 73}}, {"pk": 74, "model": "website.Station", "fields": {"importance": 4, "lon": 6.91043275261, "name": "Montreux", "lat": 46.4358743527}}, {"pk": 74, "model": "website.SellPoint", "fields": {"company": 0, "cups_desired": 155, "station": 74, "name": "sellpoint74", "cups_current": 155}}, {"pk": 74, "model": "website.DropOff", "fields": {"station": 74}}, {"pk": 75, "model": "website.Station", "fields": {"importance": 3, "lon": 9.23610817435, "name": "Münsterlingen Spital", "lat": 47.6320503917}}, {"pk": 75, "model": "website.SellPoint", "fields": {"company": 0, "cups_desired": 20, "station": 75, "name": "sellpoint75", "cups_current": 20}}, {"pk": 75, "model": "website.DropOff", "fields": {"station": 75}}, {"pk": 76, "model": "website.Station", "fields": {"importance": 3, "lon": 8.33728023957, "name": "Luzern Verkehrshaus", "lat": 47.053927868}}, {"pk": 76, "model": "website.SellPoint", "fields": {"company": 0, "cups_desired": 20, "station": 76, "name": "sellpoint76", "cups_current": 20}}, {"pk": 76, "model": "website.DropOff", "fields": {"station": 76}}, {"pk": 77, "model": "website.Station", "fields": {"importance": 3, "lon": 7.27593219578, "name": "Malleray-Bévilard", "lat": 47.2387040498}}, {"pk": 77, "model": "website.SellPoint", "fields": {"company": 0, "cups_desired": 20, "station": 77, "name": "sellpoint77", "cups_current": 20}}, {"pk": 77, "model": "website.DropOff", "fields": {"station": 77}}, {"pk": 78, "model": "website.Station", "fields": {"importance": 3, "lon": 8.23513921004, "name": "Mägenwil", "lat": 47.4145021864}}, {"pk": 78, "model": "website.SellPoint", "fields": {"company": 0, "cups_desired": 20, "station": 78, "name": "sellpoint78", "cups_current": 20}}, {"pk": 78, "model": "website.DropOff", "fields": {"station": 78}}, {"pk": 79, "model": "website.Station", "fields": {"importance": 3, "lon": 6.98565622637, "name": "Massongex", "lat": 46.2411990719}}, {"pk": 79, "model": "website.SellPoint", "fields": {"company": 0, "cups_desired": 20, "station": 79, "name": "sellpoint79", "cups_current": 20}}, {"pk": 79, "model": "website.DropOff", "fields": {"station": 79}}, {"pk": 80, "model": "website.Station", "fields": {"importance": 3, "lon": 9.52919552142, "name": "Maienfeld", "lat": 47.0038340592}}, {"pk": 80, "model": "website.SellPoint", "fields": {"company": 0, "cups_desired": 20, "station": 80, "name": "sellpoint80", "cups_current": 20}}, {"pk": 80, "model": "website.DropOff", "fields": {"station": 80}}, {"pk": 81, "model": "website.Station", "fields": {"importance": 3, "lon": 8.9483527013, "name": "Melide", "lat": 45.9557228958}}, {"pk": 81, "model": "website.SellPoint", "fields": {"company": 0, "cups_desired": 20, "station": 81, "name": "sellpoint81", "cups_current": 20}}, {"pk": 81, "model": "website.DropOff", "fields": {"station": 81}}, {"pk": 82, "model": "website.Station", "fields": {"importance": 3, "lon": 8.56176987445, "name": "Opfikon", "lat": 47.4299514492}}, {"pk": 82, "model": "website.SellPoint", "fields": {"company": 0, "cups_desired": 28, "station": 82, "name": "sellpoint82", "cups_current": 28}}, {"pk": 82, "model": "website.DropOff", "fields": {"station": 82}}, {"pk": 83, "model": "website.Station", "fields": {"importance": 3, "lon": 6.90335823773, "name": "Neuchâtel-Serrières", "lat": 46.9839549788}}, {"pk": 83, "model": "website.SellPoint", "fields": {"company": 0, "cups_desired": 20, "station": 83, "name": "sellpoint83", "cups_current": 20}}, {"pk": 83, "model": "website.DropOff", "fields": {"station": 83}}, {"pk": 84, "model": "website.Station", "fields": {"importance": 3, "lon": 7.95891948093, "name": "Oberried am Brienzersee", "lat": 46.736557734}}, {"pk": 84, "model": "website.SellPoint", "fields": {"company": 0, "cups_desired": 20, "station": 84, "name": "sellpoint84", "cups_current": 20}}, {"pk": 84, "model": "website.DropOff", "fields": {"station": 84}}, {"pk": 85, "model": "website.Station", "fields": {"importance": 3, "lon": 9.37583489866, "name": "Neukirch-Egnach", "lat": 47.5387945817}}, {"pk": 85, "model": "website.SellPoint", "fields": {"company": 0, "cups_desired": 20, "station": 85, "name": "sellpoint85", "cups_current": 20}}, {"pk": 85, "model": "website.DropOff", "fields": {"station": 85}}, {"pk": 86, "model": "website.Station", "fields": {"importance": 3, "lon": 8.04837791732, "name": "Oberentfelden", "lat": 47.3564807476}}, {"pk": 86, "model": "website.SellPoint", "fields": {"company": 0, "cups_desired": 20, "station": 86, "name": "sellpoint86", "cups_current": 20}}, {"pk": 86, "model": "website.DropOff", "fields": {"station": 86}}, {"pk": 87, "model": "website.Station", "fields": {"importance": 2, "lon": 8.57844974795, "name": "Oberrieden", "lat": 47.2796754088}}, {"pk": 87, "model": "website.SellPoint", "fields": {"company": 0, "cups_desired": 10, "station": 87, "name": "sellpoint87", "cups_current": 10}}, {"pk": 87, "model": "website.DropOff", "fields": {"station": 87}}, {"pk": 88, "model": "website.Station", "fields": {"importance": 2, "lon": 8.64661156441, "name": "Pfungen", "lat": 47.5160332387}}, {"pk": 88, "model": "website.SellPoint", "fields": {"company": 0, "cups_desired": 14, "station": 88, "name": "sellpoint88", "cups_current": 14}}, {"pk": 88, "model": "website.DropOff", "fields": {"station": 88}}, {"pk": 89, "model": "website.Station", "fields": {"importance": 3, "lon": 8.3397982935, "name": "Muri AG", "lat": 47.2766601869}}, {"pk": 89, "model": "website.SellPoint", "fields": {"company": 0, "cups_desired": 22, "station": 89, "name": "sellpoint89", "cups_current": 22}}, {"pk": 89, "model": "website.DropOff", "fields": {"station": 89}}, {"pk": 90, "model": "website.Station", "fields": {"importance": 5, "lon": 7.907688105, "name": "Olten", "lat": 47.3519295325}}, {"pk": 90, "model": "website.SellPoint", "fields": {"company": 0, "cups_desired": 693, "station": 90, "name": "sellpoint90", "cups_current": 693}}, {"pk": 90, "model": "website.DropOff", "fields": {"station": 90}}, {"pk": 91, "model": "website.Station", "fields": {"importance": 3, "lon": 6.83710274179, "name": "Oron", "lat": 46.5725335165}}, {"pk": 91, "model": "website.SellPoint", "fields": {"company": 0, "cups_desired": 20, "station": 91, "name": "sellpoint91", "cups_current": 20}}, {"pk": 91, "model": "website.DropOff", "fields": {"station": 91}}, {"pk": 92, "model": "website.Station", "fields": {"importance": 2, "lon": 6.74615360469, "name": "Le Locle", "lat": 47.0578541411}}, {"pk": 92, "model": "website.SellPoint", "fields": {"company": 0, "cups_desired": 19, "station": 92, "name": "sellpoint92", "cups_current": 19}}, {"pk": 92, "model": "website.DropOff", "fields": {"station": 92}}, {"pk": 93, "model": "website.Station", "fields": {"importance": 4, "lon": 8.80135894865, "name": "Locarno", "lat": 46.1724273965}}, {"pk": 93, "model": "website.SellPoint", "fields": {"company": 0, "cups_desired": 59, "station": 93, "name": "sellpoint93", "cups_current": 59}}, {"pk": 93, "model": "website.DropOff", "fields": {"station": 93}}, {"pk": 94, "model": "website.Station", "fields": {"importance": 3, "lon": 7.58351524915, "name": "Luterbach-Attisholz", "lat": 47.2171432544}}, {"pk": 94, "model": "website.SellPoint", "fields": {"company": 0, "cups_desired": 20, "station": 94, "name": "sellpoint94", "cups_current": 20}}, {"pk": 94, "model": "website.DropOff", "fields": {"station": 94}}, {"pk": 95, "model": "website.Station", "fields": {"importance": 2, "lon": 6.12533012554, "name": "Lancy-Pont-Rouge", "lat": 46.1888976308}}, {"pk": 95, "model": "website.SellPoint", "fields": {"company": 0, "cups_desired": 11, "station": 95, "name": "sellpoint95", "cups_current": 11}}, {"pk": 95, "model": "website.DropOff", "fields": {"station": 95}}, {"pk": 96, "model": "website.Station", "fields": {"importance": 3, "lon": 9.24694004807, "name": "Landschlacht", "lat": 47.6288954671}}, {"pk": 96, "model": "website.SellPoint", "fields": {"company": 0, "cups_desired": 20, "station": 96, "name": "sellpoint96", "cups_current": 20}}, {"pk": 96, "model": "website.DropOff", "fields": {"station": 96}}, {"pk": 97, "model": "website.Station", "fields": {"importance": 4, "lon": 7.78470885276, "name": "Langenthal", "lat": 47.2173003777}}, {"pk": 97, "model": "website.SellPoint", "fields": {"company": 0, "cups_desired": 114, "station": 97, "name": "sellpoint97", "cups_current": 114}}, {"pk": 97, "model": "website.DropOff", "fields": {"station": 97}}, {"pk": 98, "model": "website.Station", "fields": {"importance": 3, "lon": 9.04692465402, "name": "Leuggelbach", "lat": 46.9757415966}}, {"pk": 98, "model": "website.SellPoint", "fields": {"company": 0, "cups_desired": 20, "station": 98, "name": "sellpoint98", "cups_current": 20}}, {"pk": 98, "model": "website.DropOff", "fields": {"station": 98}}, {"pk": 99, "model": "website.Station", "fields": {"importance": 3, "lon": 5.99999627842, "name": "La Plaine", "lat": 46.1786594705}}, {"pk": 99, "model": "website.SellPoint", "fields": {"company": 0, "cups_desired": 20, "station": 99, "name": "sellpoint99", "cups_current": 20}}, {"pk": 99, "model": "website.DropOff", "fields": {"station": 99}}, {"pk": 100, "model": "website.Station", "fields": {"importance": 3, "lon": 8.69015147937, "name": "Ambri-Piotta", "lat": 46.510616719}}, {"pk": 100, "model": "website.SellPoint", "fields": {"company": 0, "cups_desired": 20, "station": 100, "name": "sellpoint100", "cups_current": 20}}, {"pk": 100, "model": "website.DropOff", "fields": {"station": 100}}, {"pk": 101, "model": "website.Station", "fields": {"importance": 2, "lon": 8.90328450849, "name": "Aadorf", "lat": 47.4881178542}}, {"pk": 101, "model": "website.SellPoint", "fields": {"company": 0, "cups_desired": 17, "station": 101, "name": "sellpoint101", "cups_current": 17}}, {"pk": 101, "model": "website.DropOff", "fields": {"station": 101}}, {"pk": 102, "model": "website.Station", "fields": {"importance": 3, "lon": 8.63156572016, "name": "Altdorf", "lat": 46.8757407268}}, {"pk": 102, "model": "website.SellPoint", "fields": {"company": 0, "cups_desired": 20, "station": 102, "name": "sellpoint102", "cups_current": 20}}, {"pk": 102, "model": "website.DropOff", "fields": {"station": 102}}, {"pk": 103, "model": "website.Station", "fields": {"importance": 2, "lon": 9.43333858591, "name": "Arbon", "lat": 47.5105854479}}, {"pk": 103, "model": "website.SellPoint", "fields": {"company": 0, "cups_desired": 16, "station": 103, "name": "sellpoint103", "cups_current": 16}}, {"pk": 103, "model": "website.DropOff", "fields": {"station": 103}}, {"pk": 104, "model": "website.Station", "fields": {"importance": 3, "lon": 8.84618065529, "name": "Islikon", "lat": 47.5478354373}}, {"pk": 104, "model": "website.SellPoint", "fields": {"company": 0, "cups_desired": 20, "station": 104, "name": "sellpoint104", "cups_current": 20}}, {"pk": 104, "model": "website.DropOff", "fields": {"station": 104}}, {"pk": 105, "model": "website.Station", "fields": {"importance": 3, "lon": 8.83969785564, "name": "Hinwil", "lat": 47.3000509}}, {"pk": 105, "model": "website.SellPoint", "fields": {"company": 0, "cups_desired": 28, "station": 105, "name": "sellpoint105", "cups_current": 28}}, {"pk": 105, "model": "website.DropOff", "fields": {"station": 105}}, {"pk": 106, "model": "website.Station", "fields": {"importance": 3, "lon": 7.20929652415, "name": "Glovelier", "lat": 47.3352002384}}, {"pk": 106, "model": "website.SellPoint", "fields": {"company": 0, "cups_desired": 20, "station": 106, "name": "sellpoint106", "cups_current": 20}}, {"pk": 106, "model": "website.DropOff", "fields": {"station": 106}}, {"pk": 107, "model": "website.Station", "fields": {"importance": 4, "lon": 8.61271954112, "name": "Herrliberg-Feldmeilen", "lat": 47.2818232851}}, {"pk": 107, "model": "website.SellPoint", "fields": {"company": 0, "cups_desired": 40, "station": 107, "name": "sellpoint107", "cups_current": 40}}, {"pk": 107, "model": "website.DropOff", "fields": {"station": 107}}, {"pk": 108, "model": "website.Station", "fields": {"importance": 3, "lon": 8.44989778178, "name": "Hünenberg Chämleten", "lat": 47.1691518563}}, {"pk": 108, "model": "website.SellPoint", "fields": {"company": 0, "cups_desired": 20, "station": 108, "name": "sellpoint108", "cups_current": 20}}, {"pk": 108, "model": "website.DropOff", "fields": {"station": 108}}, {"pk": 109, "model": "website.Station", "fields": {"importance": 3, "lon": 9.35870895961, "name": "Häggenschwil-Winden", "lat": 47.5038584595}}, {"pk": 109, "model": "website.SellPoint", "fields": {"company": 0, "cups_desired": 20, "station": 109, "name": "sellpoint109", "cups_current": 20}}, {"pk": 109, "model": "website.DropOff", "fields": {"station": 109}}, {"pk": 110, "model": "website.Station", "fields": {"importance": 2, "lon": 8.45007424526, "name": "Hünenberg Zythus", "lat": 47.17360308}}, {"pk": 110, "model": "website.SellPoint", "fields": {"company": 0, "cups_desired": 13, "station": 110, "name": "sellpoint110", "cups_current": 13}}, {"pk": 110, "model": "website.DropOff", "fields": {"station": 110}}, {"pk": 111, "model": "website.Station", "fields": {"importance": 2, "lon": 8.51282074899, "name": "Hüntwangen-Wil", "lat": 47.5812668467}}, {"pk": 111, "model": "website.SellPoint", "fields": {"company": 0, "cups_desired": 11, "station": 111, "name": "sellpoint111", "cups_current": 11}}, {"pk": 111, "model": "website.DropOff", "fields": {"station": 111}}, {"pk": 112, "model": "website.Station", "fields": {"importance": 2, "lon": 8.28868696709, "name": "Hochdorf", "lat": 47.1669743615}}, {"pk": 112, "model": "website.SellPoint", "fields": {"company": 0, "cups_desired": 17, "station": 112, "name": "sellpoint112", "cups_current": 17}}, {"pk": 112, "model": "website.DropOff", "fields": {"station": 112}}, {"pk": 113, "model": "website.Station", "fields": {"importance": 3, "lon": 8.80072915334, "name": "Hurden", "lat": 47.2141479959}}, {"pk": 113, "model": "website.SellPoint", "fields": {"company": 0, "cups_desired": 20, "station": 113, "name": "sellpoint113", "cups_current": 20}}, {"pk": 113, "model": "website.DropOff", "fields": {"station": 113}}, {"pk": 114, "model": "website.Station", "fields": {"importance": 3, "lon": 6.16132058711, "name": "Creux-de-Genthod", "lat": 46.263759507}}, {"pk": 114, "model": "website.SellPoint", "fields": {"company": 0, "cups_desired": 20, "station": 114, "name": "sellpoint114", "cups_current": 20}}, {"pk": 114, "model": "website.DropOff", "fields": {"station": 114}}, {"pk": 115, "model": "website.Station", "fields": {"importance": 3, "lon": 6.47811907461, "name": "Croy-Romainmôtier", "lat": 46.6967038907}}, {"pk": 115, "model": "website.SellPoint", "fields": {"company": 0, "cups_desired": 20, "station": 115, "name": "sellpoint115", "cups_current": 20}}, {"pk": 115, "model": "website.DropOff", "fields": {"station": 115}}, {"pk": 116, "model": "website.Station", "fields": {"importance": 3, "lon": 6.88380561207, "name": "Corcelles-Peseux", "lat": 46.9833400639}}, {"pk": 116, "model": "website.SellPoint", "fields": {"company": 0, "cups_desired": 20, "station": 116, "name": "sellpoint116", "cups_current": 20}}, {"pk": 116, "model": "website.DropOff", "fields": {"station": 116}}, {"pk": 117, "model": "website.Station", "fields": {"importance": 3, "lon": 7.05537172567, "name": "Courtemaîche", "lat": 47.4558625333}}, {"pk": 117, "model": "website.SellPoint", "fields": {"company": 0, "cups_desired": 20, "station": 117, "name": "sellpoint117", "cups_current": 20}}, {"pk": 117, "model": "website.DropOff", "fields": {"station": 117}}, {"pk": 118, "model": "website.Station", "fields": {"importance": 3, "lon": 7.97901545049, "name": "Dagmersellen", "lat": 47.2175519872}}, {"pk": 118, "model": "website.SellPoint", "fields": {"company": 0, "cups_desired": 20, "station": 118, "name": "sellpoint118", "cups_current": 20}}, {"pk": 118, "model": "website.DropOff", "fields": {"station": 118}}, {"pk": 119, "model": "website.Station", "fields": {"importance": 3, "lon": 8.25634387912, "name": "Döttingen", "lat": 47.5752638935}}, {"pk": 119, "model": "website.SellPoint", "fields": {"company": 0, "cups_desired": 23, "station": 119, "name": "sellpoint119", "cups_current": 23}}, {"pk": 119, "model": "website.DropOff", "fields": {"station": 119}}, {"pk": 120, "model": "website.Station", "fields": {"importance": 4, "lon": 8.61925589067, "name": "Dietlikon", "lat": 47.4201947418}}, {"pk": 120, "model": "website.SellPoint", "fields": {"company": 0, "cups_desired": 73, "station": 120, "name": "sellpoint120", "cups_current": 73}}, {"pk": 120, "model": "website.DropOff", "fields": {"station": 120}}, {"pk": 121, "model": "website.Station", "fields": {"importance": 3, "lon": 7.60344839068, "name": "Duggingen", "lat": 47.4534348999}}, {"pk": 121, "model": "website.SellPoint", "fields": {"company": 0, "cups_desired": 20, "station": 121, "name": "sellpoint121", "cups_current": 20}}, {"pk": 121, "model": "website.DropOff", "fields": {"station": 121}}, {"pk": 122, "model": "website.Station", "fields": {"importance": 3, "lon": 9.07830029592, "name": "Dietfurt", "lat": 47.3445497083}}, {"pk": 122, "model": "website.SellPoint", "fields": {"company": 0, "cups_desired": 20, "station": 122, "name": "sellpoint122", "cups_current": 20}}, {"pk": 122, "model": "website.DropOff", "fields": {"station": 122}}, {"pk": 123, "model": "website.Station", "fields": {"importance": 3, "lon": 7.34209529907, "name": "Court", "lat": 47.2405870125}}, {"pk": 123, "model": "website.SellPoint", "fields": {"company": 0, "cups_desired": 20, "station": 123, "name": "sellpoint123", "cups_current": 20}}, {"pk": 123, "model": "website.DropOff", "fields": {"station": 123}}, {"pk": 124, "model": "website.Station", "fields": {"importance": 3, "lon": 8.784962426, "name": "Gerra (Gambarogno)", "lat": 46.1220435171}}, {"pk": 124, "model": "website.SellPoint", "fields": {"company": 0, "cups_desired": 20, "station": 124, "name": "sellpoint124", "cups_current": 20}}, {"pk": 124, "model": "website.DropOff", "fields": {"station": 124}}, {"pk": 125, "model": "website.Station", "fields": {"importance": 4, "lon": 7.39817426522, "name": "Grenchen Süd", "lat": 47.1887666151}}, {"pk": 125, "model": "website.SellPoint", "fields": {"company": 0, "cups_desired": 46, "station": 125, "name": "sellpoint125", "cups_current": 46}}, {"pk": 125, "model": "website.DropOff", "fields": {"station": 125}}, {"pk": 126, "model": "website.Station", "fields": {"importance": 4, "lon": 9.00358391238, "name": "Giubiasco", "lat": 46.1738183582}}, {"pk": 126, "model": "website.SellPoint", "fields": {"company": 0, "cups_desired": 52, "station": 126, "name": "sellpoint126", "cups_current": 52}}, {"pk": 126, "model": "website.DropOff", "fields": {"station": 126}}, {"pk": 127, "model": "website.Station", "fields": {"importance": 3, "lon": 8.52403632788, "name": "Glattfelden", "lat": 47.5485571928}}, {"pk": 127, "model": "website.SellPoint", "fields": {"company": 0, "cups_desired": 20, "station": 127, "name": "sellpoint127", "cups_current": 20}}, {"pk": 127, "model": "website.DropOff", "fields": {"station": 127}}, {"pk": 128, "model": "website.Station", "fields": {"importance": 3, "lon": 8.86576625228, "name": "Gordola", "lat": 46.1790452957}}, {"pk": 128, "model": "website.SellPoint", "fields": {"company": 0, "cups_desired": 20, "station": 128, "name": "sellpoint128", "cups_current": 20}}, {"pk": 128, "model": "website.DropOff", "fields": {"station": 128}}, {"pk": 129, "model": "website.Station", "fields": {"importance": 3, "lon": 7.99002753483, "name": "Ebligen", "lat": 46.7526220004}}, {"pk": 129, "model": "website.SellPoint", "fields": {"company": 0, "cups_desired": 20, "station": 129, "name": "sellpoint129", "cups_current": 20}}, {"pk": 129, "model": "website.DropOff", "fields": {"station": 129}}, {"pk": 130, "model": "website.Station", "fields": {"importance": 4, "lon": 8.01307225263, "name": "Frick", "lat": 47.5073437467}}, {"pk": 130, "model": "website.SellPoint", "fields": {"company": 0, "cups_desired": 50, "station": 130, "name": "sellpoint130", "cups_current": 50}}, {"pk": 130, "model": "website.DropOff", "fields": {"station": 130}}, {"pk": 131, "model": "website.Station", "fields": {"importance": 2, "lon": 8.18630914667, "name": "Giswil", "lat": 46.8365341912}}, {"pk": 131, "model": "website.SellPoint", "fields": {"company": 0, "cups_desired": 11, "station": 131, "name": "sellpoint131", "cups_current": 11}}, {"pk": 131, "model": "website.DropOff", "fields": {"station": 131}}, {"pk": 132, "model": "website.Station", "fields": {"importance": 3, "lon": 7.98977700634, "name": "Eiken", "lat": 47.5330359504}}, {"pk": 132, "model": "website.SellPoint", "fields": {"company": 0, "cups_desired": 20, "station": 132, "name": "sellpoint132", "cups_current": 20}}, {"pk": 132, "model": "website.DropOff", "fields": {"station": 132}}, {"pk": 133, "model": "website.Station", "fields": {"importance": 2, "lon": 8.86339187202, "name": "Elgg", "lat": 47.4985287524}}, {"pk": 133, "model": "website.SellPoint", "fields": {"company": 0, "cups_desired": 16, "station": 133, "name": "sellpoint133", "cups_current": 16}}, {"pk": 133, "model": "website.DropOff", "fields": {"station": 133}}, {"pk": 134, "model": "website.Station", "fields": {"importance": 3, "lon": 9.01550138775, "name": "Müllheim-Wigoltingen", "lat": 47.5881673349}}, {"pk": 134, "model": "website.SellPoint", "fields": {"company": 0, "cups_desired": 20, "station": 134, "name": "sellpoint134", "cups_current": 20}}, {"pk": 134, "model": "website.DropOff", "fields": {"station": 134}}, {"pk": 135, "model": "website.Station", "fields": {"importance": 2, "lon": 7.11537589102, "name": "Murten/Morat", "lat": 46.9253915414}}, {"pk": 135, "model": "website.SellPoint", "fields": {"company": 0, "cups_desired": 19, "station": 135, "name": "sellpoint135", "cups_current": 19}}, {"pk": 135, "model": "website.DropOff", "fields": {"station": 135}}, {"pk": 136, "model": "website.Station", "fields": {"importance": 3, "lon": 7.77171069136, "name": "Oberbuchsiten", "lat": 47.3052431626}}, {"pk": 136, "model": "website.SellPoint", "fields": {"company": 0, "cups_desired": 20, "station": 136, "name": "sellpoint136", "cups_current": 20}}, {"pk": 136, "model": "website.DropOff", "fields": {"station": 136}}, {"pk": 137, "model": "website.Station", "fields": {"importance": 3, "lon": 7.69480825358, "name": "Niederbipp", "lat": 47.2703963923}}, {"pk": 137, "model": "website.SellPoint", "fields": {"company": 0, "cups_desired": 20, "station": 137, "name": "sellpoint137", "cups_current": 20}}, {"pk": 137, "model": "website.DropOff", "fields": {"station": 137}}, {"pk": 138, "model": "website.Station", "fields": {"importance": 2, "lon": 8.62491498919, "name": "Neuhausen", "lat": 47.683134176}}, {"pk": 138, "model": "website.SellPoint", "fields": {"company": 0, "cups_desired": 15, "station": 138, "name": "sellpoint138", "cups_current": 15}}, {"pk": 138, "model": "website.DropOff", "fields": {"station": 138}}, {"pk": 139, "model": "website.Station", "fields": {"importance": 2, "lon": 6.80250491145, "name": "Moudon", "lat": 46.6680516436}}, {"pk": 139, "model": "website.SellPoint", "fields": {"company": 0, "cups_desired": 12, "station": 139, "name": "sellpoint139", "cups_current": 12}}, {"pk": 139, "model": "website.DropOff", "fields": {"station": 139}}, {"pk": 140, "model": "website.Station", "fields": {"importance": 3, "lon": 8.22414905535, "name": "Mosen", "lat": 47.2442873199}}, {"pk": 140, "model": "website.SellPoint", "fields": {"company": 0, "cups_desired": 20, "station": 140, "name": "sellpoint140", "cups_current": 20}}, {"pk": 140, "model": "website.DropOff", "fields": {"station": 140}}, {"pk": 141, "model": "website.Station", "fields": {"importance": 3, "lon": 9.0621817582, "name": "Märstetten", "lat": 47.5828184065}}, {"pk": 141, "model": "website.SellPoint", "fields": {"company": 0, "cups_desired": 20, "station": 141, "name": "sellpoint141", "cups_current": 20}}, {"pk": 141, "model": "website.DropOff", "fields": {"station": 141}}, {"pk": 142, "model": "website.Station", "fields": {"importance": 3, "lon": 8.35249723256, "name": "Mellikon", "lat": 47.5684839744}}, {"pk": 142, "model": "website.SellPoint", "fields": {"company": 0, "cups_desired": 20, "station": 142, "name": "sellpoint142", "cups_current": 20}}, {"pk": 142, "model": "website.DropOff", "fields": {"station": 142}}, {"pk": 143, "model": "website.Station", "fields": {"importance": 3, "lon": 9.06921723299, "name": "Märwil", "lat": 47.5331267043}}, {"pk": 143, "model": "website.SellPoint", "fields": {"company": 0, "cups_desired": 20, "station": 143, "name": "sellpoint143", "cups_current": 20}}, {"pk": 143, "model": "website.DropOff", "fields": {"station": 143}}, {"pk": 144, "model": "website.Station", "fields": {"importance": 3, "lon": 8.27633859072, "name": "Mellingen Heitersberg", "lat": 47.4280718007}}, {"pk": 144, "model": "website.SellPoint", "fields": {"company": 0, "cups_desired": 25, "station": 144, "name": "sellpoint144", "cups_current": 25}}, {"pk": 144, "model": "website.DropOff", "fields": {"station": 144}}, {"pk": 145, "model": "website.Station", "fields": {"importance": 3, "lon": 8.37412430654, "name": "Meggen Zentrum", "lat": 47.0450427897}}, {"pk": 145, "model": "website.SellPoint", "fields": {"company": 0, "cups_desired": 20, "station": 145, "name": "sellpoint145", "cups_current": 20}}, {"pk": 145, "model": "website.DropOff", "fields": {"station": 145}}, {"pk": 146, "model": "website.Station", "fields": {"importance": 4, "lon": 7.07912247583, "name": "Martigny", "lat": 46.1058273015}}, {"pk": 146, "model": "website.SellPoint", "fields": {"company": 0, "cups_desired": 84, "station": 146, "name": "sellpoint146", "cups_current": 84}}, {"pk": 146, "model": "website.DropOff", "fields": {"station": 146}}, {"pk": 147, "model": "website.Station", "fields": {"importance": 3, "lon": 9.08119403324, "name": "Mitlödi", "lat": 47.0101282312}}, {"pk": 147, "model": "website.SellPoint", "fields": {"company": 0, "cups_desired": 20, "station": 147, "name": "sellpoint147", "cups_current": 20}}, {"pk": 147, "model": "website.DropOff", "fields": {"station": 147}}, {"pk": 148, "model": "website.Station", "fields": {"importance": 2, "lon": 6.9552285472, "name": "Monthey", "lat": 46.2556458933}}, {"pk": 148, "model": "website.SellPoint", "fields": {"company": 0, "cups_desired": 19, "station": 148, "name": "sellpoint148", "cups_current": 19}}, {"pk": 148, "model": "website.DropOff", "fields": {"station": 148}}, {"pk": 149, "model": "website.Station", "fields": {"importance": 3, "lon": 6.0769127207, "name": "Meyrin", "lat": 46.2223320008}}, {"pk": 149, "model": "website.SellPoint", "fields": {"company": 0, "cups_desired": 20, "station": 149, "name": "sellpoint149", "cups_current": 20}}, {"pk": 149, "model": "website.DropOff", "fields": {"station": 149}}, {"pk": 150, "model": "website.Station", "fields": {"importance": 3, "lon": 6.1695702204, "name": "Mies", "lat": 46.2998757136}}, {"pk": 150, "model": "website.SellPoint", "fields": {"company": 0, "cups_desired": 20, "station": 150, "name": "sellpoint150", "cups_current": 20}}, {"pk": 150, "model": "website.DropOff", "fields": {"station": 150}}, {"pk": 151, "model": "website.Station", "fields": {"importance": 2, "lon": 8.29556465398, "name": "Bad Zurzach", "lat": 47.5883101087}}, {"pk": 151, "model": "website.SellPoint", "fields": {"company": 0, "cups_desired": 14, "station": 151, "name": "sellpoint151", "cups_current": 14}}, {"pk": 151, "model": "website.DropOff", "fields": {"station": 151}}, {"pk": 152, "model": "website.Station", "fields": {"importance": 4, "lon": 8.3076927631, "name": "Baden", "lat": 47.476420225}}, {"pk": 152, "model": "website.SellPoint", "fields": {"company": 0, "cups_desired": 333, "station": 152, "name": "sellpoint152", "cups_current": 333}}, {"pk": 152, "model": "website.DropOff", "fields": {"station": 152}}, {"pk": 153, "model": "website.Station", "fields": {"importance": 3, "lon": 7.29458712956, "name": "Biel/Bienne Bözingenfeld/Champ", "lat": 47.1583882845}}, {"pk": 153, "model": "website.SellPoint", "fields": {"company": 0, "cups_desired": 20, "station": 153, "name": "sellpoint153", "cups_current": 20}}, {"pk": 153, "model": "website.DropOff", "fields": {"station": 153}}, {"pk": 154, "model": "website.Station", "fields": {"importance": 3, "lon": 8.20221962657, "name": "Beinwil am See", "lat": 47.2672189808}}, {"pk": 154, "model": "website.SellPoint", "fields": {"company": 0, "cups_desired": 20, "station": 154, "name": "sellpoint154", "cups_current": 20}}, {"pk": 154, "model": "website.DropOff", "fields": {"station": 154}}, {"pk": 155, "model": "website.Station", "fields": {"importance": 3, "lon": 8.36559619501, "name": "Benzenschwil", "lat": 47.2468435811}}, {"pk": 155, "model": "website.SellPoint", "fields": {"company": 0, "cups_desired": 20, "station": 155, "name": "sellpoint155", "cups_current": 20}}, {"pk": 155, "model": "website.DropOff", "fields": {"station": 155}}, {"pk": 156, "model": "website.Station", "fields": {"importance": 3, "lon": 9.21308178053, "name": "Bottighofen", "lat": 47.6407078714}}, {"pk": 156, "model": "website.SellPoint", "fields": {"company": 0, "cups_desired": 20, "station": 156, "name": "sellpoint156", "cups_current": 20}}, {"pk": 156, "model": "website.DropOff", "fields": {"station": 156}}, {"pk": 157, "model": "website.Station", "fields": {"importance": 3, "lon": 9.00503477094, "name": "Balerna", "lat": 45.846756939}}, {"pk": 157, "model": "website.SellPoint", "fields": {"company": 0, "cups_desired": 20, "station": 157, "name": "sellpoint157", "cups_current": 20}}, {"pk": 157, "model": "website.DropOff", "fields": {"station": 157}}, {"pk": 158, "model": "website.Station", "fields": {"importance": 3, "lon": 6.83504632593, "name": "Boudry", "lat": 46.9594442223}}, {"pk": 158, "model": "website.SellPoint", "fields": {"company": 0, "cups_desired": 20, "station": 158, "name": "sellpoint158", "cups_current": 20}}, {"pk": 158, "model": "website.DropOff", "fields": {"station": 158}}, {"pk": 159, "model": "website.Station", "fields": {"importance": 4, "lon": 8.52325583517, "name": "Baar", "lat": 47.1953625991}}, {"pk": 159, "model": "website.SellPoint", "fields": {"company": 0, "cups_desired": 74, "station": 159, "name": "sellpoint159", "cups_current": 74}}, {"pk": 159, "model": "website.DropOff", "fields": {"station": 159}}, {"pk": 160, "model": "website.Station", "fields": {"importance": 3, "lon": 8.21765486787, "name": "Birr", "lat": 47.4358394568}}, {"pk": 160, "model": "website.SellPoint", "fields": {"company": 0, "cups_desired": 20, "station": 160, "name": "sellpoint160", "cups_current": 20}}, {"pk": 160, "model": "website.DropOff", "fields": {"station": 160}}, {"pk": 161, "model": "website.Station", "fields": {"importance": 4, "lon": 6.18783276927, "name": "Coppet", "lat": 46.3173801033}}, {"pk": 161, "model": "website.SellPoint", "fields": {"company": 0, "cups_desired": 62, "station": 161, "name": "sellpoint161", "cups_current": 62}}, {"pk": 161, "model": "website.DropOff", "fields": {"station": 161}}, {"pk": 162, "model": "website.Station", "fields": {"importance": 4, "lon": 9.47862968189, "name": "Buchs SG", "lat": 47.1684089962}}, {"pk": 162, "model": "website.SellPoint", "fields": {"company": 0, "cups_desired": 45, "station": 162, "name": "sellpoint162", "cups_current": 45}}, {"pk": 162, "model": "website.DropOff", "fields": {"station": 162}}, {"pk": 163, "model": "website.Station", "fields": {"importance": 3, "lon": 8.13864485952, "name": "Brünig-Hasliberg", "lat": 46.7577632267}}, {"pk": 163, "model": "website.SellPoint", "fields": {"company": 0, "cups_desired": 20, "station": 163, "name": "sellpoint163", "cups_current": 20}}, {"pk": 163, "model": "website.DropOff", "fields": {"station": 163}}, {"pk": 164, "model": "website.Station", "fields": {"importance": 3, "lon": 8.02036390102, "name": "Brienz West", "lat": 46.7573112501}}, {"pk": 164, "model": "website.SellPoint", "fields": {"company": 0, "cups_desired": 20, "station": 164, "name": "sellpoint164", "cups_current": 20}}, {"pk": 164, "model": "website.DropOff", "fields": {"station": 164}}, {"pk": 165, "model": "website.Station", "fields": {"importance": 3, "lon": 6.94875976335, "name": "Collombey", "lat": 46.2711806973}}, {"pk": 165, "model": "website.SellPoint", "fields": {"company": 0, "cups_desired": 20, "station": 165, "name": "sellpoint165", "cups_current": 20}}, {"pk": 165, "model": "website.DropOff", "fields": {"station": 165}}, {"pk": 166, "model": "website.Station", "fields": {"importance": 3, "lon": 6.84886986434, "name": "Colombier", "lat": 46.9676392173}}, {"pk": 166, "model": "website.SellPoint", "fields": {"company": 0, "cups_desired": 20, "station": 166, "name": "sellpoint166", "cups_current": 20}}, {"pk": 166, "model": "website.DropOff", "fields": {"station": 166}}, {"pk": 167, "model": "website.Station", "fields": {"importance": 3, "lon": 6.55181947041, "name": "Bussigny", "lat": 46.5475795245}}, {"pk": 167, "model": "website.SellPoint", "fields": {"company": 0, "cups_desired": 27, "station": 167, "name": "sellpoint167", "cups_current": 27}}, {"pk": 167, "model": "website.DropOff", "fields": {"station": 167}}, {"pk": 168, "model": "website.Station", "fields": {"importance": 4, "lon": 9.03144057629, "name": "Chiasso", "lat": 45.8321788009}}, {"pk": 168, "model": "website.SellPoint", "fields": {"company": 0, "cups_desired": 47, "station": 168, "name": "sellpoint168", "cups_current": 47}}, {"pk": 168, "model": "website.DropOff", "fields": {"station": 168}}, {"pk": 169, "model": "website.Station", "fields": {"importance": 2, "lon": 8.35663714452, "name": "Buchrain", "lat": 47.0936431378}}, {"pk": 169, "model": "website.SellPoint", "fields": {"company": 0, "cups_desired": 12, "station": 169, "name": "sellpoint169", "cups_current": 12}}, {"pk": 169, "model": "website.DropOff", "fields": {"station": 169}}, {"pk": 170, "model": "website.Station", "fields": {"importance": 3, "lon": 7.84778618088, "name": "Buckten", "lat": 47.4089834328}}, {"pk": 170, "model": "website.SellPoint", "fields": {"company": 0, "cups_desired": 20, "station": 170, "name": "sellpoint170", "cups_current": 20}}, {"pk": 170, "model": "website.DropOff", "fields": {"station": 170}}, {"pk": 171, "model": "website.Station", "fields": {"importance": 3, "lon": 9.16318719461, "name": "Kreuzlingen Bernrain", "lat": 47.6421167081}}, {"pk": 171, "model": "website.SellPoint", "fields": {"company": 0, "cups_desired": 20, "station": 171, "name": "sellpoint171", "cups_current": 20}}, {"pk": 171, "model": "website.DropOff", "fields": {"station": 171}}, {"pk": 172, "model": "website.Station", "fields": {"importance": 4, "lon": 6.82601877705, "name": "La Chaux-de-Fonds", "lat": 47.0986436492}}, {"pk": 172, "model": "website.SellPoint", "fields": {"company": 0, "cups_desired": 68, "station": 172, "name": "sellpoint172", "cups_current": 68}}, {"pk": 172, "model": "website.DropOff", "fields": {"station": 172}}, {"pk": 173, "model": "website.Station", "fields": {"importance": 3, "lon": 8.4334940573, "name": "Küssnacht am Rigi", "lat": 47.0835940036}}, {"pk": 173, "model": "website.SellPoint", "fields": {"company": 0, "cups_desired": 23, "station": 173, "name": "sellpoint173", "cups_current": 23}}, {"pk": 173, "model": "website.DropOff", "fields": {"station": 173}}, {"pk": 174, "model": "website.Station", "fields": {"importance": 3, "lon": 6.67832554978, "name": "La Conversion", "lat": 46.513080116}}, {"pk": 174, "model": "website.SellPoint", "fields": {"company": 0, "cups_desired": 20, "station": 174, "name": "sellpoint174", "cups_current": 20}}, {"pk": 174, "model": "website.DropOff", "fields": {"station": 174}}, {"pk": 175, "model": "website.Station", "fields": {"importance": 2, "lon": 8.30236875, "name": "Kriens Mattenhof", "lat": 47.0266153509}}, {"pk": 175, "model": "website.SellPoint", "fields": {"company": 0, "cups_desired": 15, "station": 175, "name": "sellpoint175", "cups_current": 15}}, {"pk": 175, "model": "website.DropOff", "fields": {"station": 175}}, {"pk": 176, "model": "website.Station", "fields": {"importance": 3, "lon": 8.24013823513, "name": "Koblenz Dorf", "lat": 47.6093835703}}, {"pk": 176, "model": "website.SellPoint", "fields": {"company": 0, "cups_desired": 20, "station": 176, "name": "sellpoint176", "cups_current": 20}}, {"pk": 176, "model": "website.DropOff", "fields": {"station": 176}}, {"pk": 177, "model": "website.Station", "fields": {"importance": 4, "lon": 8.58061588761, "name": "Küsnacht ZH", "lat": 47.3191528026}}, {"pk": 177, "model": "website.SellPoint", "fields": {"company": 0, "cups_desired": 50, "station": 177, "name": "sellpoint177", "cups_current": 50}}, {"pk": 177, "model": "website.DropOff", "fields": {"station": 177}}, {"pk": 178, "model": "website.Station", "fields": {"importance": 4, "lon": 9.16906514323, "name": "Kreuzlingen", "lat": 47.6525540444}}, {"pk": 178, "model": "website.SellPoint", "fields": {"company": 0, "cups_desired": 87, "station": 178, "name": "sellpoint178", "cups_current": 87}}, {"pk": 178, "model": "website.DropOff", "fields": {"station": 178}}, {"pk": 179, "model": "website.Station", "fields": {"importance": 3, "lon": 6.51736524915, "name": "La Sarraz", "lat": 46.6587767613}}, {"pk": 179, "model": "website.SellPoint", "fields": {"company": 0, "cups_desired": 20, "station": 179, "name": "sellpoint179", "cups_current": 20}}, {"pk": 179, "model": "website.DropOff", "fields": {"station": 179}}, {"pk": 180, "model": "website.Station", "fields": {"importance": 3, "lon": 8.22702315842, "name": "Koblenz", "lat": 47.6003354815}}, {"pk": 180, "model": "website.SellPoint", "fields": {"company": 0, "cups_desired": 29, "station": 180, "name": "sellpoint180", "cups_current": 29}}, {"pk": 180, "model": "website.DropOff", "fields": {"station": 180}}, {"pk": 181, "model": "website.Station", "fields": {"importance": 3, "lon": 8.66229616245, "name": "Langwiesen", "lat": 47.6834480371}}, {"pk": 181, "model": "website.SellPoint", "fields": {"company": 0, "cups_desired": 20, "station": 181, "name": "sellpoint181", "cups_current": 20}}, {"pk": 181, "model": "website.DropOff", "fields": {"station": 181}}, {"pk": 182, "model": "website.Station", "fields": {"importance": 4, "lon": 7.73135468775, "name": "Liestal", "lat": 47.4844551308}}, {"pk": 182, "model": "website.SellPoint", "fields": {"company": 0, "cups_desired": 163, "station": 182, "name": "sellpoint182", "cups_current": 163}}, {"pk": 182, "model": "website.DropOff", "fields": {"station": 182}}, {"pk": 183, "model": "website.Station", "fields": {"importance": 3, "lon": 9.00248305864, "name": "Linthal Braunwaldbahn", "lat": 46.928393834}}, {"pk": 183, "model": "website.SellPoint", "fields": {"company": 0, "cups_desired": 20, "station": 183, "name": "sellpoint183", "cups_current": 20}}, {"pk": 183, "model": "website.DropOff", "fields": {"station": 183}}, {"pk": 184, "model": "website.Station", "fields": {"importance": 2, "lon": 6.85953018827, "name": "La Tour-de-Peilz", "lat": 46.4554432937}}, {"pk": 184, "model": "website.SellPoint", "fields": {"company": 0, "cups_desired": 19, "station": 184, "name": "sellpoint184", "cups_current": 19}}, {"pk": 184, "model": "website.DropOff", "fields": {"station": 184}}, {"pk": 185, "model": "website.Station", "fields": {"importance": 3, "lon": 9.07067425759, "name": "Lütisburg", "lat": 47.3838273619}}, {"pk": 185, "model": "website.SellPoint", "fields": {"company": 0, "cups_desired": 20, "station": 185, "name": "sellpoint185", "cups_current": 20}}, {"pk": 185, "model": "website.DropOff", "fields": {"station": 185}}, {"pk": 186, "model": "website.Station", "fields": {"importance": 4, "lon": 8.17037888645, "name": "Lenzburg", "lat": 47.3911934191}}, {"pk": 186, "model": "website.SellPoint", "fields": {"company": 0, "cups_desired": 223, "station": 186, "name": "sellpoint186", "cups_current": 223}}, {"pk": 186, "model": "website.DropOff", "fields": {"station": 186}}, {"pk": 187, "model": "website.Station", "fields": {"importance": 3, "lon": 8.99777825107, "name": "Linthal", "lat": 46.9255699583}}, {"pk": 187, "model": "website.SellPoint", "fields": {"company": 0, "cups_desired": 20, "station": 187, "name": "sellpoint187", "cups_current": 20}}, {"pk": 187, "model": "website.DropOff", "fields": {"station": 187}}, {"pk": 188, "model": "website.Station", "fields": {"importance": 5, "lon": 8.31017092011, "name": "Luzern", "lat": 47.0501697679}}, {"pk": 188, "model": "website.SellPoint", "fields": {"company": 0, "cups_desired": 847, "station": 188, "name": "sellpoint188", "cups_current": 847}}, {"pk": 188, "model": "website.DropOff", "fields": {"station": 188}}, {"pk": 189, "model": "website.Station", "fields": {"importance": 2, "lon": 7.75982160092, "name": "Lausen", "lat": 47.470196213}}, {"pk": 189, "model": "website.SellPoint", "fields": {"company": 0, "cups_desired": 14, "station": 189, "name": "sellpoint189", "cups_current": 14}}, {"pk": 189, "model": "website.DropOff", "fields": {"station": 189}}, {"pk": 190, "model": "website.Station", "fields": {"importance": 3, "lon": 8.16355874167, "name": "Lungern", "lat": 46.7863494029}}, {"pk": 190, "model": "website.SellPoint", "fields": {"company": 0, "cups_desired": 20, "station": 190, "name": "sellpoint190", "cups_current": 20}}, {"pk": 190, "model": "website.DropOff", "fields": {"station": 190}}, {"pk": 191, "model": "website.Station", "fields": {"importance": 4, "lon": 8.76037093131, "name": "Oberwinterthur", "lat": 47.5079184546}}, {"pk": 191, "model": "website.SellPoint", "fields": {"company": 0, "cups_desired": 50, "station": 191, "name": "sellpoint191", "cups_current": 50}}, {"pk": 191, "model": "website.DropOff", "fields": {"station": 191}}, {"pk": 192, "model": "website.Station", "fields": {"importance": 3, "lon": 7.8977062126, "name": "Olten Hammer", "lat": 47.3485517008}}, {"pk": 192, "model": "website.SellPoint", "fields": {"company": 0, "cups_desired": 20, "station": 192, "name": "sellpoint192", "cups_current": 20}}, {"pk": 192, "model": "website.DropOff", "fields": {"station": 192}}, {"pk": 193, "model": "website.Station", "fields": {"importance": 3, "lon": 9.57136707107, "name": "Oberriet", "lat": 47.3234789515}}, {"pk": 193, "model": "website.SellPoint", "fields": {"company": 0, "cups_desired": 20, "station": 193, "name": "sellpoint193", "cups_current": 20}}, {"pk": 193, "model": "website.DropOff", "fields": {"station": 193}}, {"pk": 194, "model": "website.Station", "fields": {"importance": 3, "lon": 8.40476673935, "name": "Oberrüti", "lat": 47.1659234421}}, {"pk": 194, "model": "website.SellPoint", "fields": {"company": 0, "cups_desired": 20, "station": 194, "name": "sellpoint194", "cups_current": 20}}, {"pk": 194, "model": "website.DropOff", "fields": {"station": 194}}, {"pk": 195, "model": "website.Station", "fields": {"importance": 3, "lon": 8.40209787525, "name": "Otelfingen Golfpark", "lat": 47.455812722}}, {"pk": 195, "model": "website.SellPoint", "fields": {"company": 0, "cups_desired": 20, "station": 195, "name": "sellpoint195", "cups_current": 20}}, {"pk": 195, "model": "website.DropOff", "fields": {"station": 195}}, {"pk": 196, "model": "website.Station", "fields": {"importance": 3, "lon": 8.37365327646, "name": "Rümikon AG", "lat": 47.5653831658}}, {"pk": 196, "model": "website.SellPoint", "fields": {"company": 0, "cups_desired": 20, "station": 196, "name": "sellpoint196", "cups_current": 20}}, {"pk": 196, "model": "website.DropOff", "fields": {"station": 196}}, {"pk": 197, "model": "website.Station", "fields": {"importance": 3, "lon": 8.85420315671, "name": "Saland", "lat": 47.3942126094}}, {"pk": 197, "model": "website.SellPoint", "fields": {"company": 0, "cups_desired": 20, "station": 197, "name": "sellpoint197", "cups_current": 20}}, {"pk": 197, "model": "website.DropOff", "fields": {"station": 197}}, {"pk": 198, "model": "website.Station", "fields": {"importance": 3, "lon": 8.79630774826, "name": "Rikon", "lat": 47.4450032571}}, {"pk": 198, "model": "website.SellPoint", "fields": {"company": 0, "cups_desired": 20, "station": 198, "name": "sellpoint198", "cups_current": 20}}, {"pk": 198, "model": "website.DropOff", "fields": {"station": 198}}, {"pk": 199, "model": "website.Station", "fields": {"importance": 3, "lon": 7.81490475887, "name": "Roggwil-Wynau", "lat": 47.2516286412}}, {"pk": 199, "model": "website.SellPoint", "fields": {"company": 0, "cups_desired": 20, "station": 199, "name": "sellpoint199", "cups_current": 20}}, {"pk": 199, "model": "website.DropOff", "fields": {"station": 199}}, {"pk": 200, "model": "website.Station", "fields": {"importance": 4, "lon": 8.62340719058, "name": "Dübendorf", "lat": 47.4000750283}}, {"pk": 200, "model": "website.SellPoint", "fields": {"company": 0, "cups_desired": 86, "station": 200, "name": "sellpoint200", "cups_current": 86}}, {"pk": 200, "model": "website.DropOff", "fields": {"station": 200}}, {"pk": 201, "model": "website.Station", "fields": {"importance": 3, "lon": 8.5870549795, "name": "Embrach-Rorbas", "lat": 47.5205878296}}, {"pk": 201, "model": "website.SellPoint", "fields": {"company": 0, "cups_desired": 24, "station": 201, "name": "sellpoint201", "cups_current": 24}}, {"pk": 201, "model": "website.DropOff", "fields": {"station": 201}}, {"pk": 202, "model": "website.Station", "fields": {"importance": 2, "lon": 8.75227980348, "name": "Diessenhofen", "lat": 47.6854695764}}, {"pk": 202, "model": "website.SellPoint", "fields": {"company": 0, "cups_desired": 11, "station": 202, "name": "sellpoint202", "cups_current": 11}}, {"pk": 202, "model": "website.DropOff", "fields": {"station": 202}}, {"pk": 203, "model": "website.Station", "fields": {"importance": 3, "lon": 6.8247755489, "name": "Corseaux-Cornalles", "lat": 46.4704453244}}, {"pk": 203, "model": "website.SellPoint", "fields": {"company": 0, "cups_desired": 20, "station": 203, "name": "sellpoint203", "cups_current": 20}}, {"pk": 203, "model": "website.DropOff", "fields": {"station": 203}}, {"pk": 204, "model": "website.Station", "fields": {"importance": 3, "lon": 7.29115599382, "name": "Courfaivre", "lat": 47.3350738097}}, {"pk": 204, "model": "website.SellPoint", "fields": {"company": 0, "cups_desired": 20, "station": 204, "name": "sellpoint204", "cups_current": 20}}, {"pk": 204, "model": "website.DropOff", "fields": {"station": 204}}, {"pk": 205, "model": "website.Station", "fields": {"importance": 3, "lon": 7.3179306259, "name": "Courtételle", "lat": 47.3428223281}}, {"pk": 205, "model": "website.SellPoint", "fields": {"company": 0, "cups_desired": 20, "station": 205, "name": "sellpoint205", "cups_current": 20}}, {"pk": 205, "model": "website.DropOff", "fields": {"station": 205}}, {"pk": 206, "model": "website.Station", "fields": {"importance": 3, "lon": 7.05763565777, "name": "Courchavon", "lat": 47.4397614989}}, {"pk": 206, "model": "website.SellPoint", "fields": {"company": 0, "cups_desired": 20, "station": 206, "name": "sellpoint206", "cups_current": 20}}, {"pk": 206, "model": "website.DropOff", "fields": {"station": 206}}, {"pk": 207, "model": "website.Station", "fields": {"importance": 3, "lon": 6.55242099774, "name": "Eclépens", "lat": 46.6571840947}}, {"pk": 207, "model": "website.SellPoint", "fields": {"company": 0, "cups_desired": 20, "station": 207, "name": "sellpoint207", "cups_current": 20}}, {"pk": 207, "model": "website.DropOff", "fields": {"station": 207}}, {"pk": 208, "model": "website.Station", "fields": {"importance": 2, "lon": 7.79894973749, "name": "Egerkingen", "lat": 47.3148575546}}, {"pk": 208, "model": "website.SellPoint", "fields": {"company": 0, "cups_desired": 11, "station": 208, "name": "sellpoint208", "cups_current": 11}}, {"pk": 208, "model": "website.DropOff", "fields": {"station": 208}}, {"pk": 209, "model": "website.Station", "fields": {"importance": 2, "lon": 8.51653513851, "name": "Eglisau", "lat": 47.5723728054}}, {"pk": 209, "model": "website.SellPoint", "fields": {"company": 0, "cups_desired": 15, "station": 209, "name": "sellpoint209", "cups_current": 15}}, {"pk": 209, "model": "website.DropOff", "fields": {"station": 209}}, {"pk": 210, "model": "website.Station", "fields": {"importance": 3, "lon": 9.03090912842, "name": "Bronschhofen AMP", "lat": 47.481268659}}, {"pk": 210, "model": "website.SellPoint", "fields": {"company": 0, "cups_desired": 20, "station": 210, "name": "sellpoint210", "cups_current": 20}}, {"pk": 210, "model": "website.DropOff", "fields": {"station": 210}}, {"pk": 211, "model": "website.Station", "fields": {"importance": 3, "lon": 6.77854229136, "name": "Chexbres-Village", "lat": 46.4810524899}}, {"pk": 211, "model": "website.SellPoint", "fields": {"company": 0, "cups_desired": 20, "station": 211, "name": "sellpoint211", "cups_current": 20}}, {"pk": 211, "model": "website.DropOff", "fields": {"station": 211}}, {"pk": 212, "model": "website.Station", "fields": {"importance": 3, "lon": 6.47473141459, "name": "Bretonnières", "lat": 46.7150454119}}, {"pk": 212, "model": "website.SellPoint", "fields": {"company": 0, "cups_desired": 20, "station": 212, "name": "sellpoint212", "cups_current": 20}}, {"pk": 212, "model": "website.DropOff", "fields": {"station": 212}}, {"pk": 213, "model": "website.Station", "fields": {"importance": 3, "lon": 6.14733924476, "name": "Chambésy", "lat": 46.2423769792}}, {"pk": 213, "model": "website.SellPoint", "fields": {"company": 0, "cups_desired": 20, "station": 213, "name": "sellpoint213", "cups_current": 20}}, {"pk": 213, "model": "website.DropOff", "fields": {"station": 213}}, {"pk": 214, "model": "website.Station", "fields": {"importance": 2, "lon": 8.94168850732, "name": "Cadenazzo", "lat": 46.1526250436}}, {"pk": 214, "model": "website.SellPoint", "fields": {"company": 0, "cups_desired": 17, "station": 214, "name": "sellpoint214", "cups_current": 17}}, {"pk": 214, "model": "website.DropOff", "fields": {"station": 214}}, {"pk": 215, "model": "website.Station", "fields": {"importance": 3, "lon": 8.84238332851, "name": "Blumenau", "lat": 47.2236693254}}, {"pk": 215, "model": "website.SellPoint", "fields": {"company": 0, "cups_desired": 20, "station": 215, "name": "sellpoint215", "cups_current": 20}}, {"pk": 215, "model": "website.DropOff", "fields": {"station": 215}}, {"pk": 216, "model": "website.Station", "fields": {"importance": 4, "lon": 8.53618858988, "name": "Bülach", "lat": 47.5239413008}}, {"pk": 216, "model": "website.SellPoint", "fields": {"company": 0, "cups_desired": 172, "station": 216, "name": "sellpoint216", "cups_current": 172}}, {"pk": 216, "model": "website.DropOff", "fields": {"station": 216}}, {"pk": 217, "model": "website.Station", "fields": {"importance": 3, "lon": 8.61004816648, "name": "Brunnen", "lat": 46.9991749288}}, {"pk": 217, "model": "website.SellPoint", "fields": {"company": 0, "cups_desired": 26, "station": 217, "name": "sellpoint217", "cups_current": 26}}, {"pk": 217, "model": "website.DropOff", "fields": {"station": 217}}, {"pk": 218, "model": "website.Station", "fields": {"importance": 3, "lon": 8.90655905474, "name": "Bodio", "lat": 46.3802576814}}, {"pk": 218, "model": "website.SellPoint", "fields": {"company": 0, "cups_desired": 20, "station": 218, "name": "sellpoint218", "cups_current": 20}}, {"pk": 218, "model": "website.DropOff", "fields": {"station": 218}}, {"pk": 219, "model": "website.Station", "fields": {"importance": 4, "lon": 7.98809158467, "name": "Brig", "lat": 46.3194210071}}, {"pk": 219, "model": "website.SellPoint", "fields": {"company": 0, "cups_desired": 159, "station": 219, "name": "sellpoint219", "cups_current": 159}}, {"pk": 219, "model": "website.DropOff", "fields": {"station": 219}}, {"pk": 220, "model": "website.Station", "fields": {"importance": 3, "lon": 9.02200129854, "name": "Berlingen", "lat": 47.6732101292}}, {"pk": 220, "model": "website.SellPoint", "fields": {"company": 0, "cups_desired": 20, "station": 220, "name": "sellpoint220", "cups_current": 20}}, {"pk": 220, "model": "website.DropOff", "fields": {"station": 220}}, {"pk": 221, "model": "website.Station", "fields": {"importance": 3, "lon": 8.87821095251, "name": "Bauma", "lat": 47.3688358029}}, {"pk": 221, "model": "website.SellPoint", "fields": {"company": 0, "cups_desired": 20, "station": 221, "name": "sellpoint221", "cups_current": 20}}, {"pk": 221, "model": "website.DropOff", "fields": {"station": 221}}, {"pk": 222, "model": "website.Station", "fields": {"importance": 4, "lon": 7.24290845288, "name": "Biel/Bienne", "lat": 47.1328920532}}, {"pk": 222, "model": "website.SellPoint", "fields": {"company": 0, "cups_desired": 428, "station": 222, "name": "sellpoint222", "cups_current": 428}}, {"pk": 222, "model": "website.DropOff", "fields": {"station": 222}}, {"pk": 223, "model": "website.Station", "fields": {"importance": 4, "lon": 8.54949116322, "name": "Arth-Goldau", "lat": 47.04915622}}, {"pk": 223, "model": "website.SellPoint", "fields": {"company": 0, "cups_desired": 126, "station": 223, "name": "sellpoint223", "cups_current": 126}}, {"pk": 223, "model": "website.DropOff", "fields": {"station": 223}}, {"pk": 224, "model": "website.Station", "fields": {"importance": 5, "lon": 7.58955146721, "name": "Basel SBB", "lat": 47.5474041527}}, {"pk": 224, "model": "website.SellPoint", "fields": {"company": 0, "cups_desired": 1014, "station": 224, "name": "sellpoint224", "cups_current": 1014}}, {"pk": 224, "model": "website.DropOff", "fields": {"station": 224}}, {"pk": 225, "model": "website.Station", "fields": {"importance": 5, "lon": 7.43911900576, "name": "Bern", "lat": 46.948824497}}, {"pk": 225, "model": "website.SellPoint", "fields": {"company": 0, "cups_desired": 1807, "station": 225, "name": "sellpoint225", "cups_current": 1807}}, {"pk": 225, "model": "website.DropOff", "fields": {"station": 225}}, {"pk": 226, "model": "website.Station", "fields": {"importance": 3, "lon": 8.67797953564, "name": "Andelfingen", "lat": 47.5937589886}}, {"pk": 226, "model": "website.SellPoint", "fields": {"company": 0, "cups_desired": 21, "station": 226, "name": "sellpoint226", "cups_current": 21}}, {"pk": 226, "model": "website.DropOff", "fields": {"station": 226}}, {"pk": 227, "model": "website.Station", "fields": {"importance": 3, "lon": 9.50521579767, "name": "Bad Ragaz", "lat": 47.0103066077}}, {"pk": 227, "model": "website.SellPoint", "fields": {"company": 0, "cups_desired": 22, "station": 227, "name": "sellpoint227", "cups_current": 22}}, {"pk": 227, "model": "website.DropOff", "fields": {"station": 227}}, {"pk": 228, "model": "website.Station", "fields": {"importance": 3, "lon": 9.06904195327, "name": "Bazenheid", "lat": 47.4101281088}}, {"pk": 228, "model": "website.SellPoint", "fields": {"company": 0, "cups_desired": 20, "station": 228, "name": "sellpoint228", "cups_current": 20}}, {"pk": 228, "model": "website.DropOff", "fields": {"station": 228}}, {"pk": 229, "model": "website.Station", "fields": {"importance": 3, "lon": 9.00863107374, "name": "Benken", "lat": 47.2044563538}}, {"pk": 229, "model": "website.SellPoint", "fields": {"company": 0, "cups_desired": 20, "station": 229, "name": "sellpoint229", "cups_current": 20}}, {"pk": 229, "model": "website.DropOff", "fields": {"station": 229}}, {"pk": 230, "model": "website.Station", "fields": {"importance": 2, "lon": 8.45736538581, "name": "Mettmenstetten", "lat": 47.244071939}}, {"pk": 230, "model": "website.SellPoint", "fields": {"company": 0, "cups_desired": 19, "station": 230, "name": "sellpoint230", "cups_current": 19}}, {"pk": 230, "model": "website.DropOff", "fields": {"station": 230}}, {"pk": 231, "model": "website.Station", "fields": {"importance": 3, "lon": 8.40903921336, "name": "Merlischachen", "lat": 47.0676559849}}, {"pk": 231, "model": "website.SellPoint", "fields": {"company": 0, "cups_desired": 20, "station": 231, "name": "sellpoint231", "cups_current": 20}}, {"pk": 231, "model": "website.DropOff", "fields": {"station": 231}}, {"pk": 232, "model": "website.Station", "fields": {"importance": 3, "lon": 7.61758557051, "name": "Münchenstein", "lat": 47.5133857839}}, {"pk": 232, "model": "website.SellPoint", "fields": {"company": 0, "cups_desired": 20, "station": 232, "name": "sellpoint232", "cups_current": 20}}, {"pk": 232, "model": "website.DropOff", "fields": {"station": 232}}, {"pk": 233, "model": "website.Station", "fields": {"importance": 3, "lon": 8.18423402153, "name": "Meiringen", "lat": 46.7273296622}}, {"pk": 233, "model": "website.SellPoint", "fields": {"company": 0, "cups_desired": 20, "station": 233, "name": "sellpoint233", "cups_current": 20}}, {"pk": 233, "model": "website.DropOff", "fields": {"station": 233}}, {"pk": 234, "model": "website.Station", "fields": {"importance": 3, "lon": 9.33708157978, "name": "Muolen", "lat": 47.5176199644}}, {"pk": 234, "model": "website.SellPoint", "fields": {"company": 0, "cups_desired": 20, "station": 234, "name": "sellpoint234", "cups_current": 20}}, {"pk": 234, "model": "website.DropOff", "fields": {"station": 234}}, {"pk": 235, "model": "website.Station", "fields": {"importance": 4, "lon": 7.64787914262, "name": "Muttenz", "lat": 47.5335803903}}, {"pk": 235, "model": "website.SellPoint", "fields": {"company": 0, "cups_desired": 47, "station": 235, "name": "sellpoint235", "cups_current": 47}}, {"pk": 235, "model": "website.DropOff", "fields": {"station": 235}}, {"pk": 236, "model": "website.Station", "fields": {"importance": 3, "lon": 6.84214373406, "name": "Lucens", "lat": 46.7077668295}}, {"pk": 236, "model": "website.SellPoint", "fields": {"company": 0, "cups_desired": 20, "station": 236, "name": "sellpoint236", "cups_current": 20}}, {"pk": 236, "model": "website.DropOff", "fields": {"station": 236}}, {"pk": 237, "model": "website.Station", "fields": {"importance": 3, "lon": 7.09632979027, "name": "Matran", "lat": 46.7889298851}}, {"pk": 237, "model": "website.SellPoint", "fields": {"company": 0, "cups_desired": 20, "station": 237, "name": "sellpoint237", "cups_current": 20}}, {"pk": 237, "model": "website.DropOff", "fields": {"station": 237}}, {"pk": 238, "model": "website.Station", "fields": {"importance": 3, "lon": 7.90961301385, "name": "Mumpf", "lat": 47.5476175889}}, {"pk": 238, "model": "website.SellPoint", "fields": {"company": 0, "cups_desired": 20, "station": 238, "name": "sellpoint238", "cups_current": 20}}, {"pk": 238, "model": "website.DropOff", "fields": {"station": 238}}, {"pk": 239, "model": "website.Station", "fields": {"importance": 4, "lon": 7.30629081519, "name": "Lyss", "lat": 47.0763151407}}, {"pk": 239, "model": "website.SellPoint", "fields": {"company": 0, "cups_desired": 103, "station": 239, "name": "sellpoint239", "cups_current": 103}}, {"pk": 239, "model": "website.DropOff", "fields": {"station": 239}}, {"pk": 240, "model": "website.Station", "fields": {"importance": 3, "lon": 9.2709268739, "name": "Oberaach", "lat": 47.5532223119}}, {"pk": 240, "model": "website.SellPoint", "fields": {"company": 0, "cups_desired": 20, "station": 240, "name": "sellpoint240", "cups_current": 20}}, {"pk": 240, "model": "website.DropOff", "fields": {"station": 240}}, {"pk": 241, "model": "website.Station", "fields": {"importance": 3, "lon": 8.38104986019, "name": "Niederweningen Dorf", "lat": 47.5059060903}}, {"pk": 241, "model": "website.SellPoint", "fields": {"company": 0, "cups_desired": 20, "station": 241, "name": "sellpoint241", "cups_current": 20}}, {"pk": 241, "model": "website.DropOff", "fields": {"station": 241}}, {"pk": 242, "model": "website.Station", "fields": {"importance": 3, "lon": 9.05925879887, "name": "Nidfurn-Haslen", "lat": 46.9858964537}}, {"pk": 242, "model": "website.SellPoint", "fields": {"company": 0, "cups_desired": 20, "station": 242, "name": "sellpoint242", "cups_current": 20}}, {"pk": 242, "model": "website.DropOff", "fields": {"station": 242}}, {"pk": 243, "model": "website.Station", "fields": {"importance": 2, "lon": 8.50329612568, "name": "Niederglatt", "lat": 47.4874689477}}, {"pk": 243, "model": "website.SellPoint", "fields": {"company": 0, "cups_desired": 11, "station": 243, "name": "sellpoint243", "cups_current": 11}}, {"pk": 243, "model": "website.DropOff", "fields": {"station": 243}}, {"pk": 244, "model": "website.Station", "fields": {"importance": 4, "lon": 7.70985469445, "name": "Oensingen", "lat": 47.2850232125}}, {"pk": 244, "model": "website.SellPoint", "fields": {"company": 0, "cups_desired": 50, "station": 244, "name": "sellpoint244", "cups_current": 50}}, {"pk": 244, "model": "website.DropOff", "fields": {"station": 244}}, {"pk": 245, "model": "website.Station", "fields": {"importance": 3, "lon": 8.11422262548, "name": "Oberkirch", "lat": 47.1552315719}}, {"pk": 245, "model": "website.SellPoint", "fields": {"company": 0, "cups_desired": 20, "station": 245, "name": "sellpoint245", "cups_current": 20}}, {"pk": 245, "model": "website.DropOff", "fields": {"station": 245}}, {"pk": 246, "model": "website.Station", "fields": {"importance": 2, "lon": 8.57070137795, "name": "Kloten Balsberg", "lat": 47.4422864693}}, {"pk": 246, "model": "website.SellPoint", "fields": {"company": 0, "cups_desired": 17, "station": 246, "name": "sellpoint246", "cups_current": 17}}, {"pk": 246, "model": "website.DropOff", "fields": {"station": 246}}, {"pk": 247, "model": "website.Station", "fields": {"importance": 3, "lon": 8.01907059825, "name": "Kölliken Oberdorf", "lat": 47.3246738705}}, {"pk": 247, "model": "website.SellPoint", "fields": {"company": 0, "cups_desired": 20, "station": 247, "name": "sellpoint247", "cups_current": 20}}, {"pk": 247, "model": "website.DropOff", "fields": {"station": 247}}, {"pk": 248, "model": "website.Station", "fields": {"importance": 3, "lon": 8.29821242385, "name": "Hochdorf Schönau", "lat": 47.1646547839}}, {"pk": 248, "model": "website.SellPoint", "fields": {"company": 0, "cups_desired": 20, "station": 248, "name": "sellpoint248", "cups_current": 20}}, {"pk": 248, "model": "website.DropOff", "fields": {"station": 248}}, {"pk": 249, "model": "website.Station", "fields": {"importance": 2, "lon": 9.18196081638, "name": "Kreuzlingen Hafen", "lat": 47.6491676497}}, {"pk": 249, "model": "website.SellPoint", "fields": {"company": 0, "cups_desired": 15, "station": 249, "name": "sellpoint249", "cups_current": 15}}, {"pk": 249, "model": "website.DropOff", "fields": {"station": 249}}, {"pk": 250, "model": "website.Station", "fields": {"importance": 2, "lon": 8.58980260632, "name": "Horgen Oberdorf", "lat": 47.2587470381}}, {"pk": 250, "model": "website.SellPoint", "fields": {"company": 0, "cups_desired": 18, "station": 250, "name": "sellpoint250", "cups_current": 18}}, {"pk": 250, "model": "website.DropOff", "fields": {"station": 250}}, {"pk": 251, "model": "website.Station", "fields": {"importance": 3, "lon": 8.31016575309, "name": "Hergiswil", "lat": 46.9826127199}}, {"pk": 251, "model": "website.SellPoint", "fields": {"company": 0, "cups_desired": 27, "station": 251, "name": "sellpoint251", "cups_current": 27}}, {"pk": 251, "model": "website.DropOff", "fields": {"station": 251}}, {"pk": 252, "model": "website.Station", "fields": {"importance": 4, "lon": 9.55402859224, "name": "Landquart", "lat": 46.9674389764}}, {"pk": 252, "model": "website.SellPoint", "fields": {"company": 0, "cups_desired": 124, "station": 252, "name": "sellpoint252", "cups_current": 124}}, {"pk": 252, "model": "website.DropOff", "fields": {"station": 252}}, {"pk": 253, "model": "website.Station", "fields": {"importance": 3, "lon": 8.57327389271, "name": "Jestetten", "lat": 47.6544006039}}, {"pk": 253, "model": "website.SellPoint", "fields": {"company": 0, "cups_desired": 20, "station": 253, "name": "sellpoint253", "cups_current": 20}}, {"pk": 253, "model": "website.DropOff", "fields": {"station": 253}}, {"pk": 254, "model": "website.Station", "fields": {"importance": 3, "lon": 8.85269238166, "name": "Lachen", "lat": 47.190068574}}, {"pk": 254, "model": "website.SellPoint", "fields": {"company": 0, "cups_desired": 28, "station": 254, "name": "sellpoint254", "cups_current": 28}}, {"pk": 254, "model": "website.DropOff", "fields": {"station": 254}}, {"pk": 255, "model": "website.Station", "fields": {"importance": 3, "lon": 9.46337580999, "name": "Horn", "lat": 47.493176824}}, {"pk": 255, "model": "website.SellPoint", "fields": {"company": 0, "cups_desired": 20, "station": 255, "name": "sellpoint255", "cups_current": 20}}, {"pk": 255, "model": "website.DropOff", "fields": {"station": 255}}, {"pk": 256, "model": "website.Station", "fields": {"importance": 3, "lon": 9.08317218002, "name": "Lichtensteig", "lat": 47.3196954706}}, {"pk": 256, "model": "website.SellPoint", "fields": {"company": 0, "cups_desired": 20, "station": 256, "name": "sellpoint256", "cups_current": 20}}, {"pk": 256, "model": "website.DropOff", "fields": {"station": 256}}, {"pk": 257, "model": "website.Station", "fields": {"importance": 3, "lon": 9.19026101005, "name": "Lengwil", "lat": 47.6255999765}}, {"pk": 257, "model": "website.SellPoint", "fields": {"company": 0, "cups_desired": 20, "station": 257, "name": "sellpoint257", "cups_current": 20}}, {"pk": 257, "model": "website.DropOff", "fields": {"station": 257}}, {"pk": 258, "model": "website.Station", "fields": {"importance": 3, "lon": 6.51954667355, "name": "Lonay-Préverenges", "lat": 46.5231229916}}, {"pk": 258, "model": "website.SellPoint", "fields": {"company": 0, "cups_desired": 20, "station": 258, "name": "sellpoint258", "cups_current": 20}}, {"pk": 258, "model": "website.DropOff", "fields": {"station": 258}}, {"pk": 259, "model": "website.Station", "fields": {"importance": 3, "lon": 6.14734101981, "name": "Les Tuileries", "lat": 46.2499433407}}, {"pk": 259, "model": "website.SellPoint", "fields": {"company": 0, "cups_desired": 20, "station": 259, "name": "sellpoint259", "cups_current": 20}}, {"pk": 259, "model": "website.DropOff", "fields": {"station": 259}}, {"pk": 260, "model": "website.Station", "fields": {"importance": 3, "lon": 7.01162043632, "name": "Léchelles", "lat": 46.8284488203}}, {"pk": 260, "model": "website.SellPoint", "fields": {"company": 0, "cups_desired": 20, "station": 260, "name": "sellpoint260", "cups_current": 20}}, {"pk": 260, "model": "website.DropOff", "fields": {"station": 260}}, {"pk": 261, "model": "website.Station", "fields": {"importance": 2, "lon": 7.06632947231, "name": "Le Landeron", "lat": 47.056626064}}, {"pk": 261, "model": "website.SellPoint", "fields": {"company": 0, "cups_desired": 11, "station": 261, "name": "sellpoint261", "cups_current": 11}}, {"pk": 261, "model": "website.DropOff", "fields": {"station": 261}}, {"pk": 262, "model": "website.Station", "fields": {"importance": 3, "lon": 8.56680664761, "name": "Lottstetten", "lat": 47.6257356296}}, {"pk": 262, "model": "website.SellPoint", "fields": {"company": 0, "cups_desired": 20, "station": 262, "name": "sellpoint262", "cups_current": 20}}, {"pk": 262, "model": "website.DropOff", "fields": {"station": 262}}, {"pk": 263, "model": "website.Station", "fields": {"importance": 5, "lon": 6.62909314109, "name": "Lausanne", "lat": 46.5167786487}}, {"pk": 263, "model": "website.SellPoint", "fields": {"company": 0, "cups_desired": 941, "station": 263, "name": "sellpoint263", "cups_current": 941}}, {"pk": 263, "model": "website.DropOff", "fields": {"station": 263}}, {"pk": 264, "model": "website.Station", "fields": {"importance": 3, "lon": 8.83974336723, "name": "Lavorgo", "lat": 46.4408978389}}, {"pk": 264, "model": "website.SellPoint", "fields": {"company": 0, "cups_desired": 20, "station": 264, "name": "sellpoint264", "cups_current": 20}}, {"pk": 264, "model": "website.DropOff", "fields": {"station": 264}}, {"pk": 265, "model": "website.Station", "fields": {"importance": 4, "lon": 7.50263030739, "name": "Laufen", "lat": 47.4193383263}}, {"pk": 265, "model": "website.SellPoint", "fields": {"company": 0, "cups_desired": 54, "station": 265, "name": "sellpoint265", "cups_current": 54}}, {"pk": 265, "model": "website.DropOff", "fields": {"station": 265}}, {"pk": 266, "model": "website.Station", "fields": {"importance": 3, "lon": 8.64595208918, "name": "Feuerthalen", "lat": 47.6921636376}}, {"pk": 266, "model": "website.SellPoint", "fields": {"company": 0, "cups_desired": 20, "station": 266, "name": "sellpoint266", "cups_current": 20}}, {"pk": 266, "model": "website.DropOff", "fields": {"station": 266}}, {"pk": 267, "model": "website.Station", "fields": {"importance": 3, "lon": 9.22619100908, "name": "Erlen", "lat": 47.5514562601}}, {"pk": 267, "model": "website.SellPoint", "fields": {"company": 0, "cups_desired": 20, "station": 267, "name": "sellpoint267", "cups_current": 20}}, {"pk": 267, "model": "website.DropOff", "fields": {"station": 267}}, {"pk": 268, "model": "website.Station", "fields": {"importance": 3, "lon": 8.94316091804, "name": "Felben-Wellhausen", "lat": 47.5771019005}}, {"pk": 268, "model": "website.SellPoint", "fields": {"company": 0, "cups_desired": 20, "station": 268, "name": "sellpoint268", "cups_current": 20}}, {"pk": 268, "model": "website.DropOff", "fields": {"station": 268}}, {"pk": 269, "model": "website.Station", "fields": {"importance": 3, "lon": 8.75026509676, "name": "Fehraltorf", "lat": 47.3851215525}}, {"pk": 269, "model": "website.SellPoint", "fields": {"company": 0, "cups_desired": 31, "station": 269, "name": "sellpoint269", "cups_current": 31}}, {"pk": 269, "model": "website.DropOff", "fields": {"station": 269}}, {"pk": 270, "model": "website.Station", "fields": {"importance": 3, "lon": 7.02552647988, "name": "Evionnaz", "lat": 46.1692425762}}, {"pk": 270, "model": "website.SellPoint", "fields": {"company": 0, "cups_desired": 20, "station": 270, "name": "sellpoint270", "cups_current": 20}}, {"pk": 270, "model": "website.DropOff", "fields": {"station": 270}}, {"pk": 271, "model": "website.Station", "fields": {"importance": 3, "lon": 8.92327465614, "name": "Fischenthal", "lat": 47.333298028}}, {"pk": 271, "model": "website.SellPoint", "fields": {"company": 0, "cups_desired": 20, "station": 271, "name": "sellpoint271", "cups_current": 20}}, {"pk": 271, "model": "website.DropOff", "fields": {"station": 271}}, {"pk": 272, "model": "website.Station", "fields": {"importance": 3, "lon": 6.74516355201, "name": "Epesses", "lat": 46.4893183671}}, {"pk": 272, "model": "website.SellPoint", "fields": {"company": 0, "cups_desired": 20, "station": 272, "name": "sellpoint272", "cups_current": 20}}, {"pk": 272, "model": "website.DropOff", "fields": {"station": 272}}, {"pk": 273, "model": "website.Station", "fields": {"importance": 2, "lon": 8.95851470682, "name": "Eschlikon", "lat": 47.4614892248}}, {"pk": 273, "model": "website.SellPoint", "fields": {"company": 0, "cups_desired": 12, "station": 273, "name": "sellpoint273", "cups_current": 12}}, {"pk": 273, "model": "website.DropOff", "fields": {"station": 273}}, {"pk": 274, "model": "website.Station", "fields": {"importance": 2, "lon": 8.78348281363, "name": "Feldbach", "lat": 47.2391975436}}, {"pk": 274, "model": "website.SellPoint", "fields": {"company": 0, "cups_desired": 12, "station": 274, "name": "sellpoint274", "cups_current": 12}}, {"pk": 274, "model": "website.DropOff", "fields": {"station": 274}}, {"pk": 275, "model": "website.Station", "fields": {"importance": 3, "lon": 9.1897661689, "name": "Flawil", "lat": 47.4151898192}}, {"pk": 275, "model": "website.SellPoint", "fields": {"company": 0, "cups_desired": 32, "station": 275, "name": "sellpoint275", "cups_current": 32}}, {"pk": 275, "model": "website.DropOff", "fields": {"station": 275}}, {"pk": 276, "model": "website.Station", "fields": {"importance": 4, "lon": 6.11198571992, "name": "Genève-Aéroport", "lat": 46.2325293452}}, {"pk": 276, "model": "website.SellPoint", "fields": {"company": 0, "cups_desired": 137, "station": 276, "name": "sellpoint276", "cups_current": 137}}, {"pk": 276, "model": "website.DropOff", "fields": {"station": 276}}, {"pk": 277, "model": "website.Station", "fields": {"importance": 2, "lon": 6.15396312897, "name": "Genthod-Bellevue", "lat": 46.2567305087}}, {"pk": 277, "model": "website.SellPoint", "fields": {"company": 0, "cups_desired": 11, "station": 277, "name": "sellpoint277", "cups_current": 11}}, {"pk": 277, "model": "website.DropOff", "fields": {"station": 277}}, {"pk": 278, "model": "website.Station", "fields": {"importance": 3, "lon": 8.4204230971, "name": "Glanzenberg", "lat": 47.3988744293}}, {"pk": 278, "model": "website.SellPoint", "fields": {"company": 0, "cups_desired": 34, "station": 278, "name": "sellpoint278", "cups_current": 34}}, {"pk": 278, "model": "website.DropOff", "fields": {"station": 278}}, {"pk": 279, "model": "website.Station", "fields": {"importance": 3, "lon": 7.0480940862, "name": "Grandgourt", "lat": 47.4699139104}}, {"pk": 279, "model": "website.SellPoint", "fields": {"company": 0, "cups_desired": 20, "station": 279, "name": "sellpoint279", "cups_current": 20}}, {"pk": 279, "model": "website.DropOff", "fields": {"station": 279}}, {"pk": 280, "model": "website.Station", "fields": {"importance": 4, "lon": 8.55883224276, "name": "Glattbrugg", "lat": 47.4308254769}}, {"pk": 280, "model": "website.SellPoint", "fields": {"company": 0, "cups_desired": 48, "station": 280, "name": "sellpoint280", "cups_current": 48}}, {"pk": 280, "model": "website.DropOff", "fields": {"station": 280}}, {"pk": 281, "model": "website.Station", "fields": {"importance": 4, "lon": 9.25303263655, "name": "Gossau SG", "lat": 47.4118296551}}, {"pk": 281, "model": "website.SellPoint", "fields": {"company": 0, "cups_desired": 101, "station": 281, "name": "sellpoint281", "cups_current": 101}}, {"pk": 281, "model": "website.DropOff", "fields": {"station": 281}}, {"pk": 282, "model": "website.Station", "fields": {"importance": 3, "lon": 8.37240400077, "name": "Grafenort", "lat": 46.8706013366}}, {"pk": 282, "model": "website.SellPoint", "fields": {"company": 0, "cups_desired": 20, "station": 282, "name": "sellpoint282", "cups_current": 20}}, {"pk": 282, "model": "website.DropOff", "fields": {"station": 282}}, {"pk": 283, "model": "website.Station", "fields": {"importance": 2, "lon": 9.46699032646, "name": "Goldach", "lat": 47.4737971116}}, {"pk": 283, "model": "website.SellPoint", "fields": {"company": 0, "cups_desired": 13, "station": 283, "name": "sellpoint283", "cups_current": 13}}, {"pk": 283, "model": "website.DropOff", "fields": {"station": 283}},